{
"type": "FeatureCollection",
"name": "상점_인근_상권",
"crs": { "type": "name", "properties": { "name": "urn:ogc:def:crs:OGC:1.3:CRS84" } },
"features": [
{ "type": "Feature", "properties": { "name": "이삭토스트 개포동역점", "HubName": "개포로82길" }, "geometry": { "type": "Point", "coordinates": [ 127.068842082027004, 37.489307214126299 ] } },
{ "type": "Feature", "properties": { "name": "개포동장군주먹고기", "HubName": "개포로82길" }, "geometry": { "type": "Point", "coordinates": [ 127.068253912130999, 37.488976525186402 ] } },
{ "type": "Feature", "properties": { "name": "드림트레이", "HubName": "개포로20길" }, "geometry": { "type": "Point", "coordinates": [ 127.046346335633004, 37.477770944910503 ] } },
{ "type": "Feature", "properties": { "name": "라피노", "HubName": "개포로28길" }, "geometry": { "type": "Point", "coordinates": [ 127.049621834058996, 37.477313884126502 ] } },
{ "type": "Feature", "properties": { "name": "블랑커피", "HubName": "논현로10길" }, "geometry": { "type": "Point", "coordinates": [ 127.050083342620994, 37.475813688595302 ] } },
{ "type": "Feature", "properties": { "name": "그집갈비탕&매운갈비찜", "HubName": "개포로20길" }, "geometry": { "type": "Point", "coordinates": [ 127.047916266713003, 37.478709530853202 ] } },
{ "type": "Feature", "properties": { "name": "돈프리미어", "HubName": "일원로3길" }, "geometry": { "type": "Point", "coordinates": [ 127.077648338610999, 37.494204585086898 ] } },
{ "type": "Feature", "properties": { "name": "요우", "HubName": "개포로20길" }, "geometry": { "type": "Point", "coordinates": [ 127.046665785011996, 37.478240515382403 ] } },
{ "type": "Feature", "properties": { "name": "밀란국수 개포본점", "HubName": "개포로28길" }, "geometry": { "type": "Point", "coordinates": [ 127.049119308263997, 37.478531447920098 ] } },
{ "type": "Feature", "properties": { "name": "커피마마퀸 개포동점", "HubName": "개포로82길" }, "geometry": { "type": "Point", "coordinates": [ 127.066845330996003, 37.4886879268822 ] } },
{ "type": "Feature", "properties": { "name": "돈가네김치찌개 본사직영점", "HubName": "개포로20길" }, "geometry": { "type": "Point", "coordinates": [ 127.047744536357001, 37.476227949936302 ] } },
{ "type": "Feature", "properties": { "name": "롸버트치킨 강남 2호기", "HubName": "개포로17길" }, "geometry": { "type": "Point", "coordinates": [ 127.048364345256999, 37.479460249392801 ] } },
{ "type": "Feature", "properties": { "name": "숙아채콩나물국밥", "HubName": "개포로20길" }, "geometry": { "type": "Point", "coordinates": [ 127.047833579246998, 37.477756116239902 ] } },
{ "type": "Feature", "properties": { "name": "원조닭한마리", "HubName": "논현로10길" }, "geometry": { "type": "Point", "coordinates": [ 127.049625822948997, 37.474455609303199 ] } },
{ "type": "Feature", "properties": { "name": "생고기원조소금구이", "HubName": "개포로20길" }, "geometry": { "type": "Point", "coordinates": [ 127.045144705181002, 37.478218130600901 ] } },
{ "type": "Feature", "properties": { "name": "삼곱식당 개포점", "HubName": "개포로20길" }, "geometry": { "type": "Point", "coordinates": [ 127.046336515530001, 37.478162707656601 ] } },
{ "type": "Feature", "properties": { "name": "필라이크잇", "HubName": "논현로10길" }, "geometry": { "type": "Point", "coordinates": [ 127.049609600539, 37.473857615785903 ] } },
{ "type": "Feature", "properties": { "name": "강남초장", "HubName": "개포로82길" }, "geometry": { "type": "Point", "coordinates": [ 127.068344314778997, 37.4892876809567 ] } },
{ "type": "Feature", "properties": { "name": "포나타이", "HubName": "일원로3길" }, "geometry": { "type": "Point", "coordinates": [ 127.078783141187003, 37.494131392827498 ] } },
{ "type": "Feature", "properties": { "name": "도토리마을 포이점", "HubName": "논현로10길" }, "geometry": { "type": "Point", "coordinates": [ 127.049327103313004, 37.473708797092897 ] } },
{ "type": "Feature", "properties": { "name": "강남그릴", "HubName": "개포로20길" }, "geometry": { "type": "Point", "coordinates": [ 127.047377781719007, 37.477826758819702 ] } },
{ "type": "Feature", "properties": { "name": "비스트로상수", "HubName": "개포로20길" }, "geometry": { "type": "Point", "coordinates": [ 127.047453413626997, 37.475319308779298 ] } },
{ "type": "Feature", "properties": { "name": "러빙헛 카페", "HubName": "개포로28길" }, "geometry": { "type": "Point", "coordinates": [ 127.049437278442994, 37.476895983164098 ] } },
{ "type": "Feature", "properties": { "name": "춘천명물닭갈비 제1호점", "HubName": "개포로20길" }, "geometry": { "type": "Point", "coordinates": [ 127.047971900133007, 37.477839493636303 ] } },
{ "type": "Feature", "properties": { "name": "스텔라떡볶이 개포점", "HubName": "개포로82길" }, "geometry": { "type": "Point", "coordinates": [ 127.068347846699993, 37.488820506456499 ] } },
{ "type": "Feature", "properties": { "name": "연스시", "HubName": "개포로82길" }, "geometry": { "type": "Point", "coordinates": [ 127.068842082027004, 37.489307214126299 ] } },
{ "type": "Feature", "properties": { "name": "스파게티스토리", "HubName": "개포로82길" }, "geometry": { "type": "Point", "coordinates": [ 127.068842082027004, 37.489307214126299 ] } },
{ "type": "Feature", "properties": { "name": "왓츠피데 개포점", "HubName": "개포로17길" }, "geometry": { "type": "Point", "coordinates": [ 127.045484024166996, 37.478836453275498 ] } },
{ "type": "Feature", "properties": { "name": "우리할매떡볶이 개포점", "HubName": "개포로82길" }, "geometry": { "type": "Point", "coordinates": [ 127.066845330996003, 37.4886879268822 ] } },
{ "type": "Feature", "properties": { "name": "형제곱창 포이점", "HubName": "개포로20길" }, "geometry": { "type": "Point", "coordinates": [ 127.046800905850006, 37.478269294239198 ] } },
{ "type": "Feature", "properties": { "name": "참치대가 개포점", "HubName": "개포로20길" }, "geometry": { "type": "Point", "coordinates": [ 127.047053497858002, 37.476322472756003 ] } },
{ "type": "Feature", "properties": { "name": "리애", "HubName": "선릉로18길" }, "geometry": { "type": "Point", "coordinates": [ 127.060091102243007, 37.483805568574503 ] } },
{ "type": "Feature", "properties": { "name": "4.2 캐쥬얼 다이닝", "HubName": "개포로20길" }, "geometry": { "type": "Point", "coordinates": [ 127.045596601607997, 37.477487779030497 ] } },
{ "type": "Feature", "properties": { "name": "홈크랩", "HubName": "개포로17길" }, "geometry": { "type": "Point", "coordinates": [ 127.047654191106005, 37.479586679229698 ] } },
{ "type": "Feature", "properties": { "name": "치마오", "HubName": "일원로3길" }, "geometry": { "type": "Point", "coordinates": [ 127.079647753193996, 37.494341198165003 ] } },
{ "type": "Feature", "properties": { "name": "더벨로 개포점", "HubName": "선릉로18길" }, "geometry": { "type": "Point", "coordinates": [ 127.061174683100006, 37.482513416718902 ] } },
{ "type": "Feature", "properties": { "name": "부타식당", "HubName": "논현로10길" }, "geometry": { "type": "Point", "coordinates": [ 127.050634920411994, 37.474795582732902 ] } },
{ "type": "Feature", "properties": { "name": "우종호의커피볶는집 본점", "HubName": "논현로10길" }, "geometry": { "type": "Point", "coordinates": [ 127.049298859819004, 37.475114654705799 ] } },
{ "type": "Feature", "properties": { "name": "제주왕솥뚜껑삼겹살", "HubName": "개포로20길" }, "geometry": { "type": "Point", "coordinates": [ 127.047103580080005, 37.478122669839401 ] } },
{ "type": "Feature", "properties": { "name": "하영각", "HubName": "개포로28길" }, "geometry": { "type": "Point", "coordinates": [ 127.049772161877002, 37.479646263743497 ] } },
{ "type": "Feature", "properties": { "name": "빨간오뎅 부산어묵", "HubName": "개포로82길" }, "geometry": { "type": "Point", "coordinates": [ 127.068116319989997, 37.4887469377421 ] } },
{ "type": "Feature", "properties": { "name": "리엔", "HubName": "개포로28길" }, "geometry": { "type": "Point", "coordinates": [ 127.049747067873, 37.478460095647797 ] } },
{ "type": "Feature", "properties": { "name": "Glyn", "HubName": "개포로17길" }, "geometry": { "type": "Point", "coordinates": [ 127.046862009879007, 37.479259929738802 ] } },
{ "type": "Feature", "properties": { "name": "청년피자 개포점", "HubName": "개포로17길" }, "geometry": { "type": "Point", "coordinates": [ 127.047134858654999, 37.479321990843999 ] } },
{ "type": "Feature", "properties": { "name": "영동올뱅이집", "HubName": "개포로20길" }, "geometry": { "type": "Point", "coordinates": [ 127.048088506213006, 37.477733487526599 ] } },
{ "type": "Feature", "properties": { "name": "올루스", "HubName": "선릉로18길" }, "geometry": { "type": "Point", "coordinates": [ 127.061405401947994, 37.483703979864998 ] } },
{ "type": "Feature", "properties": { "name": "러빙헛 스마일", "HubName": "논현로8길" }, "geometry": { "type": "Point", "coordinates": [ 127.050985186774994, 37.473511943393 ] } },
{ "type": "Feature", "properties": { "name": "쌀통닭 개포역점", "HubName": "개포로82길" }, "geometry": { "type": "Point", "coordinates": [ 127.067752825553001, 37.4886594787069 ] } },
{ "type": "Feature", "properties": { "name": "부산양대창전문점", "HubName": "개포로20길" }, "geometry": { "type": "Point", "coordinates": [ 127.045510423196006, 37.477624765696397 ] } },
{ "type": "Feature", "properties": { "name": "흙향", "HubName": "논현로10길" }, "geometry": { "type": "Point", "coordinates": [ 127.050395378068998, 37.475321604588601 ] } },
{ "type": "Feature", "properties": { "name": "라이라이", "HubName": "일원로3길" }, "geometry": { "type": "Point", "coordinates": [ 127.079681552221004, 37.4915621995587 ] } },
{ "type": "Feature", "properties": { "name": "대청뼈다귀감자탕", "HubName": "일원로9길" }, "geometry": { "type": "Point", "coordinates": [ 127.083724377185007, 37.489828929063499 ] } },
{ "type": "Feature", "properties": { "name": "스시류 일원본점", "HubName": "일원로9길" }, "geometry": { "type": "Point", "coordinates": [ 127.081055413987002, 37.490913801165803 ] } },
{ "type": "Feature", "properties": { "name": "세번째 아르보", "HubName": "일원로9길" }, "geometry": { "type": "Point", "coordinates": [ 127.085062826965, 37.490218829975902 ] } },
{ "type": "Feature", "properties": { "name": "복대감 일원동점", "HubName": "일원로9길" }, "geometry": { "type": "Point", "coordinates": [ 127.085062826965, 37.490218829975902 ] } },
{ "type": "Feature", "properties": { "name": "카페인더무드 일원점", "HubName": "일원로9길" }, "geometry": { "type": "Point", "coordinates": [ 127.081720444211001, 37.490838379223703 ] } },
{ "type": "Feature", "properties": { "name": "연이황소곱창", "HubName": "일원로9길" }, "geometry": { "type": "Point", "coordinates": [ 127.085796355094004, 37.490723314162999 ] } },
{ "type": "Feature", "properties": { "name": "꼬꾸이 누룽지 통닭구이 일원점", "HubName": "일원로9길" }, "geometry": { "type": "Point", "coordinates": [ 127.082992370919001, 37.489861881810299 ] } },
{ "type": "Feature", "properties": { "name": "옹기미가", "HubName": "일원로9길" }, "geometry": { "type": "Point", "coordinates": [ 127.083674219577006, 37.490074128714198 ] } },
{ "type": "Feature", "properties": { "name": "플룬", "HubName": "일원로9길" }, "geometry": { "type": "Point", "coordinates": [ 127.081538135827998, 37.491018616541602 ] } },
{ "type": "Feature", "properties": { "name": "오씨네 대청점", "HubName": "일원로3길" }, "geometry": { "type": "Point", "coordinates": [ 127.085163312858995, 37.495264847148 ] } },
{ "type": "Feature", "properties": { "name": "폴바셋 일원역점", "HubName": "일원로9길" }, "geometry": { "type": "Point", "coordinates": [ 127.084451750048004, 37.484073584028401 ] } },
{ "type": "Feature", "properties": { "name": "카파노", "HubName": "일원로9길" }, "geometry": { "type": "Point", "coordinates": [ 127.082425639248001, 37.491093775391697 ] } },
{ "type": "Feature", "properties": { "name": "연안식당 강남일원점", "HubName": "일원로9길" }, "geometry": { "type": "Point", "coordinates": [ 127.083724377185007, 37.489828929063499 ] } },
{ "type": "Feature", "properties": { "name": "옹기족발 일원본점", "HubName": "일원로9길" }, "geometry": { "type": "Point", "coordinates": [ 127.085664026168999, 37.4903995881618 ] } },
{ "type": "Feature", "properties": { "name": "카페알케미", "HubName": "일원로9길" }, "geometry": { "type": "Point", "coordinates": [ 127.087246599058005, 37.491251864132302 ] } },
{ "type": "Feature", "properties": { "name": "별을품은곱창 일원점", "HubName": "일원로9길" }, "geometry": { "type": "Point", "coordinates": [ 127.084482004658994, 37.490056344604298 ] } },
{ "type": "Feature", "properties": { "name": "신의주찹쌀순대", "HubName": "일원로9길" }, "geometry": { "type": "Point", "coordinates": [ 127.082021875319995, 37.489570993554601 ] } },
{ "type": "Feature", "properties": { "name": "602dessert", "HubName": "일원로3길" }, "geometry": { "type": "Point", "coordinates": [ 127.082716316269, 37.491568583233303 ] } },
{ "type": "Feature", "properties": { "name": "비첼 레스토랑", "HubName": "일원로9길" }, "geometry": { "type": "Point", "coordinates": [ 127.082425639248001, 37.491093775391697 ] } },
{ "type": "Feature", "properties": { "name": "고영국참치", "HubName": "일원로9길" }, "geometry": { "type": "Point", "coordinates": [ 127.082021875319995, 37.489570993554601 ] } },
{ "type": "Feature", "properties": { "name": "돈프리미어", "HubName": "일원로9길" }, "geometry": { "type": "Point", "coordinates": [ 127.083349074767, 37.489719091321803 ] } },
{ "type": "Feature", "properties": { "name": "제주탐하리", "HubName": "일원로9길" }, "geometry": { "type": "Point", "coordinates": [ 127.082750366544005, 37.489531381827 ] } },
{ "type": "Feature", "properties": { "name": "스타벅스 포이점", "HubName": "개포로20길" }, "geometry": { "type": "Point", "coordinates": [ 127.045132028080999, 37.477817636759603 ] } },
{ "type": "Feature", "properties": { "name": "BHC치킨 양재점", "HubName": "개포로20길" }, "geometry": { "type": "Point", "coordinates": [ 127.046303590137001, 37.477021321761598 ] } },
{ "type": "Feature", "properties": { "name": "베지그린", "HubName": "개포로20길" }, "geometry": { "type": "Point", "coordinates": [ 127.047360742164003, 37.476981618739998 ] } },
{ "type": "Feature", "properties": { "name": "인량훠궈", "HubName": "강남대로140길" }, "geometry": { "type": "Point", "coordinates": [ 127.021211430072995, 37.513995898374297 ] } },
{ "type": "Feature", "properties": { "name": "달링키친", "HubName": "선릉로121길" }, "geometry": { "type": "Point", "coordinates": [ 127.037528226915001, 37.514012113804597 ] } },
{ "type": "Feature", "properties": { "name": "인터랙트", "HubName": "강남대로118길" }, "geometry": { "type": "Point", "coordinates": [ 127.024890350383998, 37.506483235291 ] } },
{ "type": "Feature", "properties": { "name": "136길 육미", "HubName": "선릉로133길" }, "geometry": { "type": "Point", "coordinates": [ 127.036349549920999, 37.517380524261903 ] } },
{ "type": "Feature", "properties": { "name": "한성칼국수 논현점", "HubName": "도산대로38길" }, "geometry": { "type": "Point", "coordinates": [ 127.033735507919999, 37.5207914165915 ] } },
{ "type": "Feature", "properties": { "name": "호별관", "HubName": "봉은사로29길" }, "geometry": { "type": "Point", "coordinates": [ 127.035262812007005, 37.508893755745902 ] } },
{ "type": "Feature", "properties": { "name": "대가방 본점", "HubName": "도산대로50길" }, "geometry": { "type": "Point", "coordinates": [ 127.038549558778996, 37.521155300119901 ] } },
{ "type": "Feature", "properties": { "name": "홈수끼 학동점", "HubName": "선릉로133길" }, "geometry": { "type": "Point", "coordinates": [ 127.035718971503002, 37.516282843866797 ] } },
{ "type": "Feature", "properties": { "name": "키겐 강남점", "HubName": "도산대로50길" }, "geometry": { "type": "Point", "coordinates": [ 127.038350529846994, 37.522166290010396 ] } },
{ "type": "Feature", "properties": { "name": "구테로이테", "HubName": "선릉로133길" }, "geometry": { "type": "Point", "coordinates": [ 127.039630188849998, 37.517695360872303 ] } },
{ "type": "Feature", "properties": { "name": "창우수산 활새우직판장", "HubName": "선릉로133길" }, "geometry": { "type": "Point", "coordinates": [ 127.040162234519997, 37.516540274935899 ] } },
{ "type": "Feature", "properties": { "name": "가리비야 논현점", "HubName": "강남대로118길" }, "geometry": { "type": "Point", "coordinates": [ 127.025206059732, 37.505955990231399 ] } },
{ "type": "Feature", "properties": { "name": "도산뚝배기", "HubName": "도산대로50길" }, "geometry": { "type": "Point", "coordinates": [ 127.038617070217001, 37.5215513588997 ] } },
{ "type": "Feature", "properties": { "name": "수묵당", "HubName": "선릉로133길" }, "geometry": { "type": "Point", "coordinates": [ 127.040002967663, 37.5184445095557 ] } },
{ "type": "Feature", "properties": { "name": "시오", "HubName": "도산대로50길" }, "geometry": { "type": "Point", "coordinates": [ 127.039210565079998, 37.5205778099808 ] } },
{ "type": "Feature", "properties": { "name": "메리가든", "HubName": "강남대로118길" }, "geometry": { "type": "Point", "coordinates": [ 127.025878645372003, 37.505266665887703 ] } },
{ "type": "Feature", "properties": { "name": "우정양곱창", "HubName": "도산대로30길" }, "geometry": { "type": "Point", "coordinates": [ 127.030108693824999, 37.518434561828201 ] } },
{ "type": "Feature", "properties": { "name": "와사이 진", "HubName": "봉은사로29길" }, "geometry": { "type": "Point", "coordinates": [ 127.036186123171007, 37.510639713492097 ] } },
{ "type": "Feature", "properties": { "name": "김선생조개찜", "HubName": "강남대로118길" }, "geometry": { "type": "Point", "coordinates": [ 127.025416941811997, 37.5058179110476 ] } },
{ "type": "Feature", "properties": { "name": "한미옥", "HubName": "봉은사로43길" }, "geometry": { "type": "Point", "coordinates": [ 127.041832760424995, 37.5099421831274 ] } },
{ "type": "Feature", "properties": { "name": "디히랑", "HubName": "학동로38길" }, "geometry": { "type": "Point", "coordinates": [ 127.035057905946999, 37.5118740693026 ] } },
{ "type": "Feature", "properties": { "name": "수목금토 카페", "HubName": "강남대로136길" }, "geometry": { "type": "Point", "coordinates": [ 127.025444662827994, 37.514516202985703 ] } },
{ "type": "Feature", "properties": { "name": "후문포차", "HubName": "강남대로118길" }, "geometry": { "type": "Point", "coordinates": [ 127.025823165393007, 37.507384580698499 ] } },
{ "type": "Feature", "properties": { "name": "난바우동 강남본점", "HubName": "강남대로118길" }, "geometry": { "type": "Point", "coordinates": [ 127.025199318348996, 37.505752004090603 ] } },
{ "type": "Feature", "properties": { "name": "써브웨이 신사역점", "HubName": "강남대로140길" }, "geometry": { "type": "Point", "coordinates": [ 127.022285492129001, 37.5169129705369 ] } },
{ "type": "Feature", "properties": { "name": "스시롭다", "HubName": "사평대로57길" }, "geometry": { "type": "Point", "coordinates": [ 127.023718041411996, 37.508521549708 ] } },
{ "type": "Feature", "properties": { "name": "외계인방앗간 본점", "HubName": "논현로139길" }, "geometry": { "type": "Point", "coordinates": [ 127.026883369597002, 37.518100076643996 ] } },
{ "type": "Feature", "properties": { "name": "포크댄스", "HubName": "강남대로118길" }, "geometry": { "type": "Point", "coordinates": [ 127.025635887552994, 37.507103598032899 ] } },
{ "type": "Feature", "properties": { "name": "해목", "HubName": "도산대로50길" }, "geometry": { "type": "Point", "coordinates": [ 127.038295679925, 37.521531190981797 ] } },
{ "type": "Feature", "properties": { "name": "알라프리마", "HubName": "강남대로136길" }, "geometry": { "type": "Point", "coordinates": [ 127.026024816051006, 37.513551191448698 ] } },
{ "type": "Feature", "properties": { "name": "육일점", "HubName": "도산대로50길" }, "geometry": { "type": "Point", "coordinates": [ 127.035135328462005, 37.520198689131199 ] } },
{ "type": "Feature", "properties": { "name": "김수사", "HubName": "강남대로140길" }, "geometry": { "type": "Point", "coordinates": [ 127.023218324634996, 37.517187596916301 ] } },
{ "type": "Feature", "properties": { "name": "일치", "HubName": "도산대로38길" }, "geometry": { "type": "Point", "coordinates": [ 127.033423678632005, 37.520639325853999 ] } },
{ "type": "Feature", "properties": { "name": "롤리폴리 꼬또", "HubName": "봉은사로43길" }, "geometry": { "type": "Point", "coordinates": [ 127.042323036973002, 37.511287838808798 ] } },
{ "type": "Feature", "properties": { "name": "논현오뎅", "HubName": "강남대로118길" }, "geometry": { "type": "Point", "coordinates": [ 127.026961344396994, 37.509085063135799 ] } },
{ "type": "Feature", "properties": { "name": "양꽃", "HubName": "사평대로57길" }, "geometry": { "type": "Point", "coordinates": [ 127.024075389188994, 37.507642727366502 ] } },
{ "type": "Feature", "properties": { "name": "카메스시", "HubName": "선릉로121길" }, "geometry": { "type": "Point", "coordinates": [ 127.041759617850005, 37.5138642804787 ] } },
{ "type": "Feature", "properties": { "name": "정육공방", "HubName": "도산대로30길" }, "geometry": { "type": "Point", "coordinates": [ 127.029877438745999, 37.518326590258603 ] } },
{ "type": "Feature", "properties": { "name": "장생건강원", "HubName": "학동로6길" }, "geometry": { "type": "Point", "coordinates": [ 127.024509019899, 37.509375180326799 ] } },
{ "type": "Feature", "properties": { "name": "모스가든", "HubName": "논현로139길" }, "geometry": { "type": "Point", "coordinates": [ 127.028327451639996, 37.516686785542397 ] } },
{ "type": "Feature", "properties": { "name": "제이브릭스", "HubName": "강남대로118길" }, "geometry": { "type": "Point", "coordinates": [ 127.025605528157996, 37.505637038570498 ] } },
{ "type": "Feature", "properties": { "name": "해몽", "HubName": "선릉로133길" }, "geometry": { "type": "Point", "coordinates": [ 127.036376713644998, 37.518112400932303 ] } },
{ "type": "Feature", "properties": { "name": "상무초밥 강남역점", "HubName": "강남대로118길" }, "geometry": { "type": "Point", "coordinates": [ 127.025700266314999, 37.505196066015699 ] } },
{ "type": "Feature", "properties": { "name": "진미평양냉면", "HubName": "선릉로133길" }, "geometry": { "type": "Point", "coordinates": [ 127.036042298778, 37.516145252498099 ] } },
{ "type": "Feature", "properties": { "name": "화다인", "HubName": "사평대로57길" }, "geometry": { "type": "Point", "coordinates": [ 127.023595819649998, 37.507936371537099 ] } },
{ "type": "Feature", "properties": { "name": "OPNNG", "HubName": "도산대로38길" }, "geometry": { "type": "Point", "coordinates": [ 127.031018682668005, 37.518882305162997 ] } },
{ "type": "Feature", "properties": { "name": "삼육가 본점", "HubName": "강남대로118길" }, "geometry": { "type": "Point", "coordinates": [ 127.025018227906997, 37.505691855433597 ] } },
{ "type": "Feature", "properties": { "name": "킹박스", "HubName": "강남대로140길" }, "geometry": { "type": "Point", "coordinates": [ 127.021211430072995, 37.513995898374297 ] } },
{ "type": "Feature", "properties": { "name": "갯벌의진주본점", "HubName": "사평대로57길" }, "geometry": { "type": "Point", "coordinates": [ 127.023882927127005, 37.508111018683202 ] } },
{ "type": "Feature", "properties": { "name": "67soho", "HubName": "도산대로30길" }, "geometry": { "type": "Point", "coordinates": [ 127.030224381378005, 37.518636717412299 ] } },
{ "type": "Feature", "properties": { "name": "마담밍", "HubName": "삼성로75길" }, "geometry": { "type": "Point", "coordinates": [ 127.05023944189, 37.503462032240201 ] } },
{ "type": "Feature", "properties": { "name": "오미마리", "HubName": "삼성로75길" }, "geometry": { "type": "Point", "coordinates": [ 127.055900487939994, 37.504333554346502 ] } },
{ "type": "Feature", "properties": { "name": "부타이", "HubName": "영동대로65길" }, "geometry": { "type": "Point", "coordinates": [ 127.060045236879006, 37.506171192661597 ] } },
{ "type": "Feature", "properties": { "name": "오성식당", "HubName": "삼성로75길" }, "geometry": { "type": "Point", "coordinates": [ 127.058127907336001, 37.505196993850603 ] } },
{ "type": "Feature", "properties": { "name": "몽중헌 대치점", "HubName": "영동대로65길" }, "geometry": { "type": "Point", "coordinates": [ 127.065495897887999, 37.503291026092697 ] } },
{ "type": "Feature", "properties": { "name": "파크 하얏트 서울 코너스톤", "HubName": "영동대로65길" }, "geometry": { "type": "Point", "coordinates": [ 127.064281744303997, 37.508733673483697 ] } },
{ "type": "Feature", "properties": { "name": "진대감 선릉점", "HubName": "삼성로75길" }, "geometry": { "type": "Point", "coordinates": [ 127.054001273493995, 37.504032150518903 ] } },
{ "type": "Feature", "properties": { "name": "카페인더무드 대치점", "HubName": "삼성로75길" }, "geometry": { "type": "Point", "coordinates": [ 127.055649301976999, 37.5040295836314 ] } },
{ "type": "Feature", "properties": { "name": "싸리골빈대떡 본점", "HubName": "삼성로75길" }, "geometry": { "type": "Point", "coordinates": [ 127.051694411369994, 37.5034685224349 ] } },
{ "type": "Feature", "properties": { "name": "FIREBELL", "HubName": "삼성로75길" }, "geometry": { "type": "Point", "coordinates": [ 127.052205040749996, 37.500391183095502 ] } },
{ "type": "Feature", "properties": { "name": "이스트빌리지서울 대치점", "HubName": "삼성로57길" }, "geometry": { "type": "Point", "coordinates": [ 127.062659097416002, 37.494570014453402 ] } },
{ "type": "Feature", "properties": { "name": "해봉정육", "HubName": "영동대로65길" }, "geometry": { "type": "Point", "coordinates": [ 127.066565204125993, 37.5077460789187 ] } },
{ "type": "Feature", "properties": { "name": "만나분식", "HubName": "삼성로64길" }, "geometry": { "type": "Point", "coordinates": [ 127.065915414442998, 37.499615770505798 ] } },
{ "type": "Feature", "properties": { "name": "창고43 삼성점", "HubName": "영동대로65길" }, "geometry": { "type": "Point", "coordinates": [ 127.062795669810001, 37.5080381764122 ] } },
{ "type": "Feature", "properties": { "name": "그란구스또", "HubName": "삼성로69길" }, "geometry": { "type": "Point", "coordinates": [ 127.059579892941002, 37.501974725447198 ] } },
{ "type": "Feature", "properties": { "name": "스시유", "HubName": "영동대로65길" }, "geometry": { "type": "Point", "coordinates": [ 127.064339793556996, 37.505603010318801 ] } },
{ "type": "Feature", "properties": { "name": "칠랑고", "HubName": "삼성로75길" }, "geometry": { "type": "Point", "coordinates": [ 127.052697638181002, 37.502610592160103 ] } },
{ "type": "Feature", "properties": { "name": "코이라멘 한티역점", "HubName": "삼성로63길" }, "geometry": { "type": "Point", "coordinates": [ 127.052847881209999, 37.498195415616301 ] } },
{ "type": "Feature", "properties": { "name": "바스버거 선릉점", "HubName": "삼성로75길" }, "geometry": { "type": "Point", "coordinates": [ 127.054280655061007, 37.504237001197602 ] } },
{ "type": "Feature", "properties": { "name": "명동관", "HubName": "삼성로57길" }, "geometry": { "type": "Point", "coordinates": [ 127.056142941592, 37.490705987987504 ] } },
{ "type": "Feature", "properties": { "name": "하동관 강남분점", "HubName": "삼성로75길" }, "geometry": { "type": "Point", "coordinates": [ 127.055338371969995, 37.505061560992303 ] } },
{ "type": "Feature", "properties": { "name": "피양콩할마니", "HubName": "삼성로75길" }, "geometry": { "type": "Point", "coordinates": [ 127.055240972614996, 37.504109874665801 ] } },
{ "type": "Feature", "properties": { "name": "후레쉬빌 삼성역본점", "HubName": "영동대로65길" }, "geometry": { "type": "Point", "coordinates": [ 127.066305587884997, 37.508202403636197 ] } },
{ "type": "Feature", "properties": { "name": "크라이치즈버거 삼성역점", "HubName": "영동대로65길" }, "geometry": { "type": "Point", "coordinates": [ 127.065263068185999, 37.509044252271799 ] } },
{ "type": "Feature", "properties": { "name": "르브런쉭 대치점", "HubName": "삼성로69길" }, "geometry": { "type": "Point", "coordinates": [ 127.059143825481996, 37.502857209289502 ] } },
{ "type": "Feature", "properties": { "name": "테라로사 포스코센터점", "HubName": "삼성로75길" }, "geometry": { "type": "Point", "coordinates": [ 127.056130956027999, 37.505814967970899 ] } },
{ "type": "Feature", "properties": { "name": "나폴레옹제과점 대치점", "HubName": "삼성로57길" }, "geometry": { "type": "Point", "coordinates": [ 127.057955970310005, 37.492429370162597 ] } },
{ "type": "Feature", "properties": { "name": "농민백암순대 본점", "HubName": "삼성로75길" }, "geometry": { "type": "Point", "coordinates": [ 127.052982069883996, 37.503732937634901 ] } },
{ "type": "Feature", "properties": { "name": "셀러브리티 버거", "HubName": "삼성로63길" }, "geometry": { "type": "Point", "coordinates": [ 127.053662537549002, 37.498639334557801 ] } },
{ "type": "Feature", "properties": { "name": "앙떼띠 커피로스터리", "HubName": "영동대로65길" }, "geometry": { "type": "Point", "coordinates": [ 127.066592014354995, 37.5038047972699 ] } },
{ "type": "Feature", "properties": { "name": "차호랑", "HubName": "삼성로75길" }, "geometry": { "type": "Point", "coordinates": [ 127.055805020516999, 37.504466317571797 ] } },
{ "type": "Feature", "properties": { "name": "코벤트가든 선릉점", "HubName": "삼성로75길" }, "geometry": { "type": "Point", "coordinates": [ 127.050665212091005, 37.501573883159303 ] } },
{ "type": "Feature", "properties": { "name": "신동궁감자탕 선릉직영점", "HubName": "삼성로75길" }, "geometry": { "type": "Point", "coordinates": [ 127.052878172597005, 37.504106450937499 ] } },
{ "type": "Feature", "properties": { "name": "빅조이케이크", "HubName": "삼성로69길" }, "geometry": { "type": "Point", "coordinates": [ 127.055452209151994, 37.5000982280446 ] } },
{ "type": "Feature", "properties": { "name": "카페 리버티", "HubName": "삼성로75길" }, "geometry": { "type": "Point", "coordinates": [ 127.058692749684994, 37.505240052903197 ] } },
{ "type": "Feature", "properties": { "name": "뽕나무쟁이 선릉본점", "HubName": "삼성로75길" }, "geometry": { "type": "Point", "coordinates": [ 127.052001164203006, 37.503199527751697 ] } },
{ "type": "Feature", "properties": { "name": "스시치우", "HubName": "테헤란로81길" }, "geometry": { "type": "Point", "coordinates": [ 127.058656127091993, 37.507001535999002 ] } },
{ "type": "Feature", "properties": { "name": "명품유쾌 강남본점", "HubName": "삼성로75길" }, "geometry": { "type": "Point", "coordinates": [ 127.051631798515999, 37.499587377249 ] } },
{ "type": "Feature", "properties": { "name": "반룡산", "HubName": "삼성로75길" }, "geometry": { "type": "Point", "coordinates": [ 127.055805020516999, 37.504466317571797 ] } },
{ "type": "Feature", "properties": { "name": "보노보노 삼성점", "HubName": "테헤란로81길" }, "geometry": { "type": "Point", "coordinates": [ 127.057978287881994, 37.506816624024097 ] } },
{ "type": "Feature", "properties": { "name": "껠끄쇼즈", "HubName": "삼성로57길" }, "geometry": { "type": "Point", "coordinates": [ 127.056621926548004, 37.496992805701097 ] } },
{ "type": "Feature", "properties": { "name": "나따오비까 대치점", "HubName": "삼성로63길" }, "geometry": { "type": "Point", "coordinates": [ 127.054419556037004, 37.498186142508899 ] } },
{ "type": "Feature", "properties": { "name": "거자필반", "HubName": "영동대로65길" }, "geometry": { "type": "Point", "coordinates": [ 127.065688827676993, 37.508830478180499 ] } },
{ "type": "Feature", "properties": { "name": "마라테이블", "HubName": "삼성로75길" }, "geometry": { "type": "Point", "coordinates": [ 127.050494769750998, 37.503066381945096 ] } },
{ "type": "Feature", "properties": { "name": "중앙해장", "HubName": "영동대로65길" }, "geometry": { "type": "Point", "coordinates": [ 127.065480466482001, 37.5082832335342 ] } },
{ "type": "Feature", "properties": { "name": "샤오바오우육면", "HubName": "삼성로75길" }, "geometry": { "type": "Point", "coordinates": [ 127.052544193417006, 37.503773318059203 ] } },
{ "type": "Feature", "properties": { "name": "오레노카츠 선릉점", "HubName": "삼성로75길" }, "geometry": { "type": "Point", "coordinates": [ 127.054638082335998, 37.503676501149897 ] } },
{ "type": "Feature", "properties": { "name": "스시소라 대치점", "HubName": "삼성로75길" }, "geometry": { "type": "Point", "coordinates": [ 127.054808973849006, 37.5043018098376 ] } },
{ "type": "Feature", "properties": { "name": "삼성골목집", "HubName": "영동대로65길" }, "geometry": { "type": "Point", "coordinates": [ 127.065688827676993, 37.508830478180499 ] } },
{ "type": "Feature", "properties": { "name": "세드라", "HubName": "삼성로75길" }, "geometry": { "type": "Point", "coordinates": [ 127.052807052429003, 37.502364388557503 ] } },
{ "type": "Feature", "properties": { "name": "마린", "HubName": "논현로28길" }, "geometry": { "type": "Point", "coordinates": [ 127.045399786399997, 37.483865737167697 ] } },
{ "type": "Feature", "properties": { "name": "키노에다", "HubName": "논현로28길" }, "geometry": { "type": "Point", "coordinates": [ 127.044485775755007, 37.485406719114202 ] } },
{ "type": "Feature", "properties": { "name": "하영호신촌설렁탕 본점", "HubName": "논현로28길" }, "geometry": { "type": "Point", "coordinates": [ 127.045096214995993, 37.483880539865098 ] } },
{ "type": "Feature", "properties": { "name": "홀리차우 도곡점", "HubName": "논현로28길" }, "geometry": { "type": "Point", "coordinates": [ 127.049755052514001, 37.487603347673499 ] } },
{ "type": "Feature", "properties": { "name": "로마옥", "HubName": "남부순환로365길" }, "geometry": { "type": "Point", "coordinates": [ 127.034068788108002, 37.486999019978697 ] } },
{ "type": "Feature", "properties": { "name": "룸서비스301", "HubName": "논현로26길" }, "geometry": { "type": "Point", "coordinates": [ 127.046624521040997, 37.482792429274497 ] } },
{ "type": "Feature", "properties": { "name": "답다", "HubName": "남부순환로365길" }, "geometry": { "type": "Point", "coordinates": [ 127.036387082866995, 37.4858751319695 ] } },
{ "type": "Feature", "properties": { "name": "남순남순대국 본점", "HubName": "논현로63길" }, "geometry": { "type": "Point", "coordinates": [ 127.033425830669998, 37.489190184557003 ] } },
{ "type": "Feature", "properties": { "name": "카츠오우 도곡점", "HubName": "논현로28길" }, "geometry": { "type": "Point", "coordinates": [ 127.045079262653005, 37.484645682717598 ] } },
{ "type": "Feature", "properties": { "name": "포브라더스 도곡점", "HubName": "논현로28길" }, "geometry": { "type": "Point", "coordinates": [ 127.045320958768997, 37.484017947768102 ] } },
{ "type": "Feature", "properties": { "name": "풍류랑", "HubName": "논현로28길" }, "geometry": { "type": "Point", "coordinates": [ 127.044413695155001, 37.483210177722 ] } },
{ "type": "Feature", "properties": { "name": "호두까끼형제", "HubName": "강남대로34길" }, "geometry": { "type": "Point", "coordinates": [ 127.034740406018997, 37.485495131842001 ] } },
{ "type": "Feature", "properties": { "name": "도쿄등심 도곡점", "HubName": "논현로28길" }, "geometry": { "type": "Point", "coordinates": [ 127.046989600230006, 37.487480771533399 ] } },
{ "type": "Feature", "properties": { "name": "차만다 도곡점", "HubName": "논현로28길" }, "geometry": { "type": "Point", "coordinates": [ 127.043344617347998, 37.485072418687103 ] } },
{ "type": "Feature", "properties": { "name": "평양면옥도곡점", "HubName": "논현로28길" }, "geometry": { "type": "Point", "coordinates": [ 127.044756720145998, 37.483379437897298 ] } },
{ "type": "Feature", "properties": { "name": "미에뜨", "HubName": "논현로26길" }, "geometry": { "type": "Point", "coordinates": [ 127.046753123640002, 37.482871396916401 ] } },
{ "type": "Feature", "properties": { "name": "설천 오이스터바", "HubName": "논현로26길" }, "geometry": { "type": "Point", "coordinates": [ 127.043884168220004, 37.4815836042931 ] } },
{ "type": "Feature", "properties": { "name": "양인환대", "HubName": "강남대로34길" }, "geometry": { "type": "Point", "coordinates": [ 127.035377555734996, 37.485522603731297 ] } },
{ "type": "Feature", "properties": { "name": "백마 김씨네 도곡본점", "HubName": "논현로28길" }, "geometry": { "type": "Point", "coordinates": [ 127.045679138685003, 37.487155841380897 ] } },
{ "type": "Feature", "properties": { "name": "비플레이트 바이 브라운브레드", "HubName": "논현로26길" }, "geometry": { "type": "Point", "coordinates": [ 127.046084380645993, 37.4829191428054 ] } },
{ "type": "Feature", "properties": { "name": "곱창왕김형제", "HubName": "강남대로34길" }, "geometry": { "type": "Point", "coordinates": [ 127.034429700830998, 37.485259609117797 ] } },
{ "type": "Feature", "properties": { "name": "심재 도곡", "HubName": "논현로28길" }, "geometry": { "type": "Point", "coordinates": [ 127.044937731797006, 37.4837491431052 ] } },
{ "type": "Feature", "properties": { "name": "더 다이브", "HubName": "논현로28길" }, "geometry": { "type": "Point", "coordinates": [ 127.044113506718006, 37.485320902504597 ] } },
{ "type": "Feature", "properties": { "name": "마누테라스", "HubName": "논현로26길" }, "geometry": { "type": "Point", "coordinates": [ 127.045573477903005, 37.482228627694496 ] } },
{ "type": "Feature", "properties": { "name": "브라이언스커피", "HubName": "논현로26길" }, "geometry": { "type": "Point", "coordinates": [ 127.045784429364005, 37.4838572994625 ] } },
{ "type": "Feature", "properties": { "name": "언노운다이너", "HubName": "논현로28길" }, "geometry": { "type": "Point", "coordinates": [ 127.045488849837994, 37.484185921329797 ] } },
{ "type": "Feature", "properties": { "name": "페르에피스", "HubName": "논현로26길" }, "geometry": { "type": "Point", "coordinates": [ 127.051553942029997, 37.487338671183402 ] } },
{ "type": "Feature", "properties": { "name": "플레어비 도곡점", "HubName": "논현로28길" }, "geometry": { "type": "Point", "coordinates": [ 127.044921500749993, 37.483455510587603 ] } },
{ "type": "Feature", "properties": { "name": "작은공간", "HubName": "남부순환로365길" }, "geometry": { "type": "Point", "coordinates": [ 127.035565303937005, 37.486832613277997 ] } },
{ "type": "Feature", "properties": { "name": "안남", "HubName": "논현로26길" }, "geometry": { "type": "Point", "coordinates": [ 127.051855548139002, 37.486915966440101 ] } },
{ "type": "Feature", "properties": { "name": "리베르떼", "HubName": "논현로28길" }, "geometry": { "type": "Point", "coordinates": [ 127.046296940516001, 37.484384730311803 ] } },
{ "type": "Feature", "properties": { "name": "니혼슈바 슈토", "HubName": "남부순환로365길" }, "geometry": { "type": "Point", "coordinates": [ 127.034891078474004, 37.4873393610427 ] } },
{ "type": "Feature", "properties": { "name": "난지당", "HubName": "강남대로34길" }, "geometry": { "type": "Point", "coordinates": [ 127.035196748822997, 37.485257040481201 ] } },
{ "type": "Feature", "properties": { "name": "경복궁 도곡점", "HubName": "논현로28길" }, "geometry": { "type": "Point", "coordinates": [ 127.048777977062002, 37.488427276305501 ] } },
{ "type": "Feature", "properties": { "name": "cuisson82", "HubName": "논현로26길" }, "geometry": { "type": "Point", "coordinates": [ 127.044692469534994, 37.481620783279098 ] } },
{ "type": "Feature", "properties": { "name": "라드레쎄", "HubName": "논현로26길" }, "geometry": { "type": "Point", "coordinates": [ 127.046825527270002, 37.484027001845398 ] } },
{ "type": "Feature", "properties": { "name": "퀸즈 블러바드", "HubName": "논현로26길" }, "geometry": { "type": "Point", "coordinates": [ 127.043434193728004, 37.481603772962004 ] } },
{ "type": "Feature", "properties": { "name": "마켓오 도곡점", "HubName": "논현로28길" }, "geometry": { "type": "Point", "coordinates": [ 127.046049933380004, 37.487216695680701 ] } },
{ "type": "Feature", "properties": { "name": "김영모과자점 도곡타워점", "HubName": "논현로26길" }, "geometry": { "type": "Point", "coordinates": [ 127.051553942029997, 37.487338671183402 ] } },
{ "type": "Feature", "properties": { "name": "점보씨푸드", "HubName": "논현로28길" }, "geometry": { "type": "Point", "coordinates": [ 127.052014632509, 37.4888657676631 ] } },
{ "type": "Feature", "properties": { "name": "시트롱", "HubName": "논현로26길" }, "geometry": { "type": "Point", "coordinates": [ 127.046501185297004, 37.484278871710799 ] } },
{ "type": "Feature", "properties": { "name": "minu c", "HubName": "논현로26길" }, "geometry": { "type": "Point", "coordinates": [ 127.043568682189999, 37.481703465127303 ] } },
{ "type": "Feature", "properties": { "name": "도마", "HubName": "논현로28길" }, "geometry": { "type": "Point", "coordinates": [ 127.045399786399997, 37.483865737167697 ] } },
{ "type": "Feature", "properties": { "name": "원스타 올드패션드 햄버거", "HubName": "논현로26길" }, "geometry": { "type": "Point", "coordinates": [ 127.044367921347003, 37.482856909428399 ] } },
{ "type": "Feature", "properties": { "name": "클라우즈비", "HubName": "논현로28길" }, "geometry": { "type": "Point", "coordinates": [ 127.043724471204996, 37.482461606479902 ] } },
{ "type": "Feature", "properties": { "name": "스시강지문", "HubName": "논현로28길" }, "geometry": { "type": "Point", "coordinates": [ 127.045880009840999, 37.4850326278805 ] } },
{ "type": "Feature", "properties": { "name": "오리지널팬케이크하우스 도곡점", "HubName": "논현로28길" }, "geometry": { "type": "Point", "coordinates": [ 127.046989600230006, 37.487480771533399 ] } },
{ "type": "Feature", "properties": { "name": "타이쇼", "HubName": "강남대로34길" }, "geometry": { "type": "Point", "coordinates": [ 127.035196748822997, 37.485257040481201 ] } },
{ "type": "Feature", "properties": { "name": "레아", "HubName": "논현로26길" }, "geometry": { "type": "Point", "coordinates": [ 127.043977892881003, 37.481963254571298 ] } },
{ "type": "Feature", "properties": { "name": "뱅뱅막국수", "HubName": "논현로63길" }, "geometry": { "type": "Point", "coordinates": [ 127.032839070004002, 37.489653737370503 ] } },
{ "type": "Feature", "properties": { "name": "아그라 코엑스점", "HubName": "테헤란로81길" }, "geometry": { "type": "Point", "coordinates": [ 127.059159043842001, 37.511823912113798 ] } },
{ "type": "Feature", "properties": { "name": "시추안하우스 삼성점", "HubName": "테헤란로81길" }, "geometry": { "type": "Point", "coordinates": [ 127.057990612268, 37.509590000698203 ] } },
{ "type": "Feature", "properties": { "name": "팀호완 삼성점", "HubName": "테헤란로81길" }, "geometry": { "type": "Point", "coordinates": [ 127.056865845073006, 37.511448688909901 ] } },
{ "type": "Feature", "properties": { "name": "배스킨라빈스 파르나스몰점", "HubName": "테헤란로81길" }, "geometry": { "type": "Point", "coordinates": [ 127.060806919870004, 37.509191691987297 ] } },
{ "type": "Feature", "properties": { "name": "피에프창 코엑스몰점", "HubName": "테헤란로81길" }, "geometry": { "type": "Point", "coordinates": [ 127.059159043842001, 37.511823912113798 ] } },
{ "type": "Feature", "properties": { "name": "명인등심 삼성직영점", "HubName": "테헤란로81길" }, "geometry": { "type": "Point", "coordinates": [ 127.056865845073006, 37.511448688909901 ] } },
{ "type": "Feature", "properties": { "name": "브루클린더버거조인트 삼성점", "HubName": "테헤란로81길" }, "geometry": { "type": "Point", "coordinates": [ 127.055575258798001, 37.512619437299598 ] } },
{ "type": "Feature", "properties": { "name": "수담 한정식", "HubName": "봉은사로57길" }, "geometry": { "type": "Point", "coordinates": [ 127.045978619451006, 37.510510887859297 ] } },
{ "type": "Feature", "properties": { "name": "바이킹스워프 코엑스점", "HubName": "테헤란로81길" }, "geometry": { "type": "Point", "coordinates": [ 127.059159043842001, 37.511823912113798 ] } },
{ "type": "Feature", "properties": { "name": "신라다랑원", "HubName": "봉은사로68길" }, "geometry": { "type": "Point", "coordinates": [ 127.049866009979993, 37.511294265735401 ] } },
{ "type": "Feature", "properties": { "name": "꽃지삼성점", "HubName": "영동대로112길" }, "geometry": { "type": "Point", "coordinates": [ 127.061618047272006, 37.514220767195901 ] } },
{ "type": "Feature", "properties": { "name": "고메램 삼성점", "HubName": "테헤란로81길" }, "geometry": { "type": "Point", "coordinates": [ 127.057075333081997, 37.509090479054699 ] } },
{ "type": "Feature", "properties": { "name": "비야게레로", "HubName": "봉은사로68길" }, "geometry": { "type": "Point", "coordinates": [ 127.052782480958996, 37.511959561449203 ] } },
{ "type": "Feature", "properties": { "name": "젠제로", "HubName": "학동로56길" }, "geometry": { "type": "Point", "coordinates": [ 127.043229960702007, 37.515270038278501 ] } },
{ "type": "Feature", "properties": { "name": "Chez Alex", "HubName": "봉은사로57길" }, "geometry": { "type": "Point", "coordinates": [ 127.044004219121007, 37.511420933511701 ] } },
{ "type": "Feature", "properties": { "name": "길목", "HubName": "봉은사로109길" }, "geometry": { "type": "Point", "coordinates": [ 127.056403395592, 37.519022657489899 ] } },
{ "type": "Feature", "properties": { "name": "그랜드 인터컨티넨탈 서울 파르나스 그랜드 키친", "HubName": "테헤란로81길" }, "geometry": { "type": "Point", "coordinates": [ 127.060806919870004, 37.509191691987297 ] } },
{ "type": "Feature", "properties": { "name": "투도우 테이블", "HubName": "삼성로115길" }, "geometry": { "type": "Point", "coordinates": [ 127.048805070268997, 37.511990103947703 ] } },
{ "type": "Feature", "properties": { "name": "샤이바나 코엑스점", "HubName": "테헤란로81길" }, "geometry": { "type": "Point", "coordinates": [ 127.059159043842001, 37.511823912113798 ] } },
{ "type": "Feature", "properties": { "name": "사이드쇼", "HubName": "테헤란로81길" }, "geometry": { "type": "Point", "coordinates": [ 127.057114235894005, 37.512943695344198 ] } },
{ "type": "Feature", "properties": { "name": "428 레스토랑", "HubName": "봉은사로57길" }, "geometry": { "type": "Point", "coordinates": [ 127.046897468379996, 37.510840654641797 ] } },
{ "type": "Feature", "properties": { "name": "조인바이트", "HubName": "봉은사로57길" }, "geometry": { "type": "Point", "coordinates": [ 127.044612119129994, 37.511528195295 ] } },
{ "type": "Feature", "properties": { "name": "마노디셰프 삼성점", "HubName": "테헤란로81길" }, "geometry": { "type": "Point", "coordinates": [ 127.058249994863999, 37.509052784243401 ] } },
{ "type": "Feature", "properties": { "name": "블랙랩", "HubName": "봉은사로68길" }, "geometry": { "type": "Point", "coordinates": [ 127.049057919123996, 37.506713806310998 ] } },
{ "type": "Feature", "properties": { "name": "외고집설렁탕", "HubName": "봉은사로68길" }, "geometry": { "type": "Point", "coordinates": [ 127.053900663552994, 37.511016335727597 ] } },
{ "type": "Feature", "properties": { "name": "멘야미코 청담역점", "HubName": "삼성로115길" }, "geometry": { "type": "Point", "coordinates": [ 127.051322820557999, 37.517401366554999 ] } },
{ "type": "Feature", "properties": { "name": "비언유주얼", "HubName": "봉은사로57길" }, "geometry": { "type": "Point", "coordinates": [ 127.044610165099996, 37.509575268907099 ] } },
{ "type": "Feature", "properties": { "name": "장정정", "HubName": "테헤란로81길" }, "geometry": { "type": "Point", "coordinates": [ 127.055223583203002, 37.507985466098098 ] } },
{ "type": "Feature", "properties": { "name": "인터컨티넨탈 서울 코엑스 브래서리", "HubName": "테헤란로81길" }, "geometry": { "type": "Point", "coordinates": [ 127.057114235894005, 37.512943695344198 ] } },
{ "type": "Feature", "properties": { "name": "탐라도야지", "HubName": "테헤란로81길" }, "geometry": { "type": "Point", "coordinates": [ 127.055708381822001, 37.511089739756301 ] } },
{ "type": "Feature", "properties": { "name": "붓처스컷 삼성점", "HubName": "테헤란로81길" }, "geometry": { "type": "Point", "coordinates": [ 127.058342385871995, 37.508743694053798 ] } },
{ "type": "Feature", "properties": { "name": "스시욘즈", "HubName": "테헤란로81길" }, "geometry": { "type": "Point", "coordinates": [ 127.056808306719006, 37.508955186780298 ] } },
{ "type": "Feature", "properties": { "name": "경천애인2237", "HubName": "삼성로75길" }, "geometry": { "type": "Point", "coordinates": [ 127.052532174565997, 37.505989165690899 ] } },
{ "type": "Feature", "properties": { "name": "스시산원", "HubName": "봉은사로68길" }, "geometry": { "type": "Point", "coordinates": [ 127.050848399493006, 37.506544741410899 ] } },
{ "type": "Feature", "properties": { "name": "무월식탁 파르나스점", "HubName": "테헤란로81길" }, "geometry": { "type": "Point", "coordinates": [ 127.060806919870004, 37.509191691987297 ] } },
{ "type": "Feature", "properties": { "name": "이대성의진면목", "HubName": "테헤란로81길" }, "geometry": { "type": "Point", "coordinates": [ 127.057137953712001, 37.510226885796698 ] } },
{ "type": "Feature", "properties": { "name": "르푸도레", "HubName": "테헤란로81길" }, "geometry": { "type": "Point", "coordinates": [ 127.058205573267003, 37.510982397319196 ] } },
{ "type": "Feature", "properties": { "name": "로지몬스터아이스크림 파르나스몰점", "HubName": "테헤란로81길" }, "geometry": { "type": "Point", "coordinates": [ 127.060806919870004, 37.509191691987297 ] } },
{ "type": "Feature", "properties": { "name": "카페 노티드 삼성", "HubName": "영동대로112길" }, "geometry": { "type": "Point", "coordinates": [ 127.063894923685993, 37.510049890591198 ] } },
{ "type": "Feature", "properties": { "name": "봉밀가", "HubName": "학동로56길" }, "geometry": { "type": "Point", "coordinates": [ 127.042316926707002, 37.515891070350399 ] } },
{ "type": "Feature", "properties": { "name": "스시히로바 삼성동본점", "HubName": "삼성로115길" }, "geometry": { "type": "Point", "coordinates": [ 127.052623413020001, 37.514965471760199 ] } },
{ "type": "Feature", "properties": { "name": "허머스키친", "HubName": "테헤란로81길" }, "geometry": { "type": "Point", "coordinates": [ 127.060806919870004, 37.509191691987297 ] } },
{ "type": "Feature", "properties": { "name": "피그인더가든 코엑스점", "HubName": "테헤란로81길" }, "geometry": { "type": "Point", "coordinates": [ 127.059443354482994, 37.509632256475903 ] } },
{ "type": "Feature", "properties": { "name": "일상정원", "HubName": "테헤란로81길" }, "geometry": { "type": "Point", "coordinates": [ 127.057114235894005, 37.512943695344198 ] } },
{ "type": "Feature", "properties": { "name": "에그슬럿 코엑스점", "HubName": "테헤란로81길" }, "geometry": { "type": "Point", "coordinates": [ 127.059159043842001, 37.511823912113798 ] } },
{ "type": "Feature", "properties": { "name": "Restaurant RIPE", "HubName": "영동대로112길" }, "geometry": { "type": "Point", "coordinates": [ 127.064830624308996, 37.510947862299702 ] } },
{ "type": "Feature", "properties": { "name": "르뱅룰즈", "HubName": "학동로56길" }, "geometry": { "type": "Point", "coordinates": [ 127.042332457469001, 37.5155511161052 ] } },
{ "type": "Feature", "properties": { "name": "매드포갈릭 봉은사 아이파크타워점(with 카페리피)", "HubName": "영동대로112길" }, "geometry": { "type": "Point", "coordinates": [ 127.061137077786, 37.513640049833199 ] } },
{ "type": "Feature", "properties": { "name": "곰바위 본점", "HubName": "봉은사로109길" }, "geometry": { "type": "Point", "coordinates": [ 127.058814098409002, 37.5148920028536 ] } },
{ "type": "Feature", "properties": { "name": "딤딤섬 파르나스몰점", "HubName": "테헤란로81길" }, "geometry": { "type": "Point", "coordinates": [ 127.060806919870004, 37.509191691987297 ] } },
{ "type": "Feature", "properties": { "name": "민짬뽕", "HubName": "일원로9길" }, "geometry": { "type": "Point", "coordinates": [ 127.096024011590998, 37.472056996722003 ] } },
{ "type": "Feature", "properties": { "name": "형제왕족발보쌈", "HubName": "송이로36길" }, "geometry": { "type": "Point", "coordinates": [ 127.107313539805006, 37.463230353206399 ] } },
{ "type": "Feature", "properties": { "name": "포아이니 강남세곡점", "HubName": "일원로9길" }, "geometry": { "type": "Point", "coordinates": [ 127.100039368894997, 37.466816001685302 ] } },
{ "type": "Feature", "properties": { "name": "론론카페", "HubName": "송이로36길" }, "geometry": { "type": "Point", "coordinates": [ 127.103202034808007, 37.473673394074702 ] } },
{ "type": "Feature", "properties": { "name": "오세안 양갈비 세곡점", "HubName": "일원로9길" }, "geometry": { "type": "Point", "coordinates": [ 127.097403955941004, 37.466809553678303 ] } },
{ "type": "Feature", "properties": { "name": "고봉민김밥인 강남세곡점", "HubName": "일원로9길" }, "geometry": { "type": "Point", "coordinates": [ 127.100777255780997, 37.466789605792201 ] } },
{ "type": "Feature", "properties": { "name": "곽만근갈비탕 강남세곡점", "HubName": "일원로9길" }, "geometry": { "type": "Point", "coordinates": [ 127.099221838093996, 37.466794345892602 ] } },
{ "type": "Feature", "properties": { "name": "강남햅쌀만꼬마김밥", "HubName": "송이로36길" }, "geometry": { "type": "Point", "coordinates": [ 127.107316682291994, 37.473810916931598 ] } },
{ "type": "Feature", "properties": { "name": "마이레시피 세곡점", "HubName": "일원로9길" }, "geometry": { "type": "Point", "coordinates": [ 127.101327440795004, 37.466805623799203 ] } },
{ "type": "Feature", "properties": { "name": "디저트포레", "HubName": "일원로9길" }, "geometry": { "type": "Point", "coordinates": [ 127.100730901084006, 37.466362025556499 ] } },
{ "type": "Feature", "properties": { "name": "밀우 본점", "HubName": "일원로9길" }, "geometry": { "type": "Point", "coordinates": [ 127.100777255780997, 37.466789605792201 ] } },
{ "type": "Feature", "properties": { "name": "피자리움", "HubName": "송이로36길" }, "geometry": { "type": "Point", "coordinates": [ 127.108451533535003, 37.473613821069698 ] } },
{ "type": "Feature", "properties": { "name": "단미그린비", "HubName": "일원로9길" }, "geometry": { "type": "Point", "coordinates": [ 127.102657029743995, 37.479299861253502 ] } },
{ "type": "Feature", "properties": { "name": "추오정남원추어탕 수서점", "HubName": "백제고분로34길" }, "geometry": { "type": "Point", "coordinates": [ 127.104012030996003, 37.4814182091757 ] } },
{ "type": "Feature", "properties": { "name": "키와미", "HubName": "일원로9길" }, "geometry": { "type": "Point", "coordinates": [ 127.099221838093996, 37.466794345892602 ] } },
{ "type": "Feature", "properties": { "name": "육대장 세곡점", "HubName": "일원로9길" }, "geometry": { "type": "Point", "coordinates": [ 127.098034835888001, 37.466814257837498 ] } },
{ "type": "Feature", "properties": { "name": "카페밤고개로", "HubName": "송이로36길" }, "geometry": { "type": "Point", "coordinates": [ 127.107004594884998, 37.468687065372599 ] } },
{ "type": "Feature", "properties": { "name": "초원식당", "HubName": "송이로36길" }, "geometry": { "type": "Point", "coordinates": [ 127.105649688560007, 37.478178260192301 ] } },
{ "type": "Feature", "properties": { "name": "돌리고제주도야지 세곡점", "HubName": "일원로9길" }, "geometry": { "type": "Point", "coordinates": [ 127.100777255780997, 37.466789605792201 ] } },
{ "type": "Feature", "properties": { "name": "THE374", "HubName": "일원로9길" }, "geometry": { "type": "Point", "coordinates": [ 127.099622299347999, 37.468214001883098 ] } },
{ "type": "Feature", "properties": { "name": "BHC치킨 세곡점", "HubName": "송이로36길" }, "geometry": { "type": "Point", "coordinates": [ 127.113882240039004, 37.474223290516697 ] } },
{ "type": "Feature", "properties": { "name": "우리할매떡볶이 강남세곡점", "HubName": "일원로9길" }, "geometry": { "type": "Point", "coordinates": [ 127.100730901084006, 37.466362025556499 ] } },
{ "type": "Feature", "properties": { "name": "별을품은곱창 세곡점", "HubName": "일원로9길" }, "geometry": { "type": "Point", "coordinates": [ 127.100777255780997, 37.466789605792201 ] } },
{ "type": "Feature", "properties": { "name": "블랑제리쉐종", "HubName": "일원로9길" }, "geometry": { "type": "Point", "coordinates": [ 127.096502429368002, 37.472145626766299 ] } },
{ "type": "Feature", "properties": { "name": "두찜 강남세곡점", "HubName": "송이로36길" }, "geometry": { "type": "Point", "coordinates": [ 127.105019940622995, 37.474769132011801 ] } },
{ "type": "Feature", "properties": { "name": "은곡빵집", "HubName": "일원로9길" }, "geometry": { "type": "Point", "coordinates": [ 127.097605853874001, 37.466816685273898 ] } },
{ "type": "Feature", "properties": { "name": "반포식스 세곡점", "HubName": "일원로9길" }, "geometry": { "type": "Point", "coordinates": [ 127.100777255780997, 37.466789605792201 ] } },
{ "type": "Feature", "properties": { "name": "이태리부대찌개 강남자곡점", "HubName": "송이로36길" }, "geometry": { "type": "Point", "coordinates": [ 127.103019331420995, 37.472674243486999 ] } },
{ "type": "Feature", "properties": { "name": "스타벅스 강남세곡점", "HubName": "일원로9길" }, "geometry": { "type": "Point", "coordinates": [ 127.099929765276002, 37.467274258416602 ] } },
{ "type": "Feature", "properties": { "name": "논현삼계탕", "HubName": "백제고분로34길" }, "geometry": { "type": "Point", "coordinates": [ 127.104080477026002, 37.481938841735499 ] } },
{ "type": "Feature", "properties": { "name": "세곡동완도전복마을", "HubName": "송이로36길" }, "geometry": { "type": "Point", "coordinates": [ 127.109296169228003, 37.465411596052299 ] } },
{ "type": "Feature", "properties": { "name": "내가국수다", "HubName": "송이로36길" }, "geometry": { "type": "Point", "coordinates": [ 127.108451533535003, 37.473613821069698 ] } },
{ "type": "Feature", "properties": { "name": "만강 수서점", "HubName": "송이로36길" }, "geometry": { "type": "Point", "coordinates": [ 127.115361747088002, 37.474157793537898 ] } },
{ "type": "Feature", "properties": { "name": "백채김치찌개 자곡점", "HubName": "송이로36길" }, "geometry": { "type": "Point", "coordinates": [ 127.105019940622995, 37.474769132011801 ] } },
{ "type": "Feature", "properties": { "name": "플랩잭팬트리 수서점", "HubName": "송이로36길" }, "geometry": { "type": "Point", "coordinates": [ 127.109568980714002, 37.470868944602799 ] } },
{ "type": "Feature", "properties": { "name": "나주본곰탕", "HubName": "송이로36길" }, "geometry": { "type": "Point", "coordinates": [ 127.107033929305999, 37.4747519175665 ] } },
{ "type": "Feature", "properties": { "name": "굽다", "HubName": "송이로36길" }, "geometry": { "type": "Point", "coordinates": [ 127.104212466936005, 37.474481974357403 ] } },
{ "type": "Feature", "properties": { "name": "닭장수후라이드 강남세곡점", "HubName": "일원로9길" }, "geometry": { "type": "Point", "coordinates": [ 127.100039368894997, 37.466816001685302 ] } },
{ "type": "Feature", "properties": { "name": "카페 두레브", "HubName": "일원로9길" }, "geometry": { "type": "Point", "coordinates": [ 127.099221838093996, 37.466794345892602 ] } },
{ "type": "Feature", "properties": { "name": "얌테이블 스토어 강남세곡점", "HubName": "일원로9길" }, "geometry": { "type": "Point", "coordinates": [ 127.100039368894997, 37.466816001685302 ] } },
{ "type": "Feature", "properties": { "name": "파파존스 세곡점", "HubName": "일원로9길" }, "geometry": { "type": "Point", "coordinates": [ 127.100777255780997, 37.466789605792201 ] } },
{ "type": "Feature", "properties": { "name": "목포명가 율현본점", "HubName": "송이로36길" }, "geometry": { "type": "Point", "coordinates": [ 127.108593084934, 37.4737791164507 ] } },
{ "type": "Feature", "properties": { "name": "못골빈대떡", "HubName": "송이로36길" }, "geometry": { "type": "Point", "coordinates": [ 127.105402001580003, 37.474409198885503 ] } },
{ "type": "Feature", "properties": { "name": "군산횟집", "HubName": "일원로9길" }, "geometry": { "type": "Point", "coordinates": [ 127.100039368894997, 37.466816001685302 ] } },
{ "type": "Feature", "properties": { "name": "교수마을 초원복집", "HubName": "일원로9길" }, "geometry": { "type": "Point", "coordinates": [ 127.102804582730997, 37.479473537578997 ] } },
{ "type": "Feature", "properties": { "name": "아이키친 강남점", "HubName": "일원로9길" }, "geometry": { "type": "Point", "coordinates": [ 127.100306549234006, 37.468389660713299 ] } },
{ "type": "Feature", "properties": { "name": "투썸플레이스 강남세곡점", "HubName": "일원로9길" }, "geometry": { "type": "Point", "coordinates": [ 127.100730901084006, 37.466362025556499 ] } },
{ "type": "Feature", "properties": { "name": "본죽&비빔밥cafe 세곡점", "HubName": "일원로9길" }, "geometry": { "type": "Point", "coordinates": [ 127.100777255780997, 37.466789605792201 ] } },
{ "type": "Feature", "properties": { "name": "홍팥집 세곡점", "HubName": "송이로36길" }, "geometry": { "type": "Point", "coordinates": [ 127.103468343168998, 37.4631480963128 ] } },
{ "type": "Feature", "properties": { "name": "함평한우장터", "HubName": "백제고분로34길" }, "geometry": { "type": "Point", "coordinates": [ 127.103899364681993, 37.481703657714 ] } },
{ "type": "Feature", "properties": { "name": "짱수양꼬치 수서점", "HubName": "백제고분로34길" }, "geometry": { "type": "Point", "coordinates": [ 127.103229900293002, 37.488506584770199 ] } },
{ "type": "Feature", "properties": { "name": "필경재", "HubName": "일원로9길" }, "geometry": { "type": "Point", "coordinates": [ 127.095188697533004, 37.484886960825897 ] } },
{ "type": "Feature", "properties": { "name": "BBQ치킨 강남수서점", "HubName": "백제고분로34길" }, "geometry": { "type": "Point", "coordinates": [ 127.101844450005999, 37.488024486741601 ] } },
{ "type": "Feature", "properties": { "name": "현대옥 수서점", "HubName": "백제고분로34길" }, "geometry": { "type": "Point", "coordinates": [ 127.101844450005999, 37.488024486741601 ] } },
{ "type": "Feature", "properties": { "name": "벌스데이", "HubName": "백제고분로34길" }, "geometry": { "type": "Point", "coordinates": [ 127.101844450005999, 37.488024486741601 ] } },
{ "type": "Feature", "properties": { "name": "우공뭉티기", "HubName": "백제고분로34길" }, "geometry": { "type": "Point", "coordinates": [ 127.103108072457005, 37.487319163148896 ] } },
{ "type": "Feature", "properties": { "name": "수서역 벌교한상", "HubName": "백제고분로34길" }, "geometry": { "type": "Point", "coordinates": [ 127.099392322488995, 37.4858466768924 ] } },
{ "type": "Feature", "properties": { "name": "가원", "HubName": "일원로9길" }, "geometry": { "type": "Point", "coordinates": [ 127.098332321231993, 37.485598164861401 ] } },
{ "type": "Feature", "properties": { "name": "카페 차 수서역사점", "HubName": "백제고분로34길" }, "geometry": { "type": "Point", "coordinates": [ 127.104560301199001, 37.485418652466301 ] } },
{ "type": "Feature", "properties": { "name": "계절집", "HubName": "백제고분로34길" }, "geometry": { "type": "Point", "coordinates": [ 127.104470715166002, 37.488559104032603 ] } },
{ "type": "Feature", "properties": { "name": "림스시", "HubName": "백제고분로34길" }, "geometry": { "type": "Point", "coordinates": [ 127.101844450005999, 37.488024486741601 ] } },
{ "type": "Feature", "properties": { "name": "버거스하이", "HubName": "백제고분로34길" }, "geometry": { "type": "Point", "coordinates": [ 127.104470715166002, 37.488559104032603 ] } },
{ "type": "Feature", "properties": { "name": "스타벅스 수서역R점", "HubName": "백제고분로34길" }, "geometry": { "type": "Point", "coordinates": [ 127.103068802126998, 37.488116769361099 ] } },
{ "type": "Feature", "properties": { "name": "리아네", "HubName": "백제고분로32길" }, "geometry": { "type": "Point", "coordinates": [ 127.098186321626002, 37.487908650496301 ] } },
{ "type": "Feature", "properties": { "name": "산낙지갯마을 수서본점", "HubName": "일원로9길" }, "geometry": { "type": "Point", "coordinates": [ 127.097530255438002, 37.485105257485301 ] } },
{ "type": "Feature", "properties": { "name": "하남돼지집 수서역점", "HubName": "백제고분로34길" }, "geometry": { "type": "Point", "coordinates": [ 127.102760230380994, 37.488364995428398 ] } },
{ "type": "Feature", "properties": { "name": "스시야", "HubName": "백제고분로34길" }, "geometry": { "type": "Point", "coordinates": [ 127.103108072457005, 37.487319163148896 ] } },
{ "type": "Feature", "properties": { "name": "203 갈비해물집", "HubName": "백제고분로34길" }, "geometry": { "type": "Point", "coordinates": [ 127.102487846211005, 37.488369646964998 ] } },
{ "type": "Feature", "properties": { "name": "푸요", "HubName": "백제고분로34길" }, "geometry": { "type": "Point", "coordinates": [ 127.101844450005999, 37.488024486741601 ] } },
{ "type": "Feature", "properties": { "name": "큰물참치 수서점", "HubName": "백제고분로34길" }, "geometry": { "type": "Point", "coordinates": [ 127.101844450005999, 37.488024486741601 ] } },
{ "type": "Feature", "properties": { "name": "본죽 수서점", "HubName": "백제고분로34길" }, "geometry": { "type": "Point", "coordinates": [ 127.101844450005999, 37.488024486741601 ] } },
{ "type": "Feature", "properties": { "name": "백채김치찌개 수서역점", "HubName": "백제고분로34길" }, "geometry": { "type": "Point", "coordinates": [ 127.101844450005999, 37.488024486741601 ] } },
{ "type": "Feature", "properties": { "name": "청년떡볶이 수서역점", "HubName": "백제고분로34길" }, "geometry": { "type": "Point", "coordinates": [ 127.101844450005999, 37.488024486741601 ] } },
{ "type": "Feature", "properties": { "name": "애란궁", "HubName": "일원로9길" }, "geometry": { "type": "Point", "coordinates": [ 127.097843976388006, 37.4848142427889 ] } },
{ "type": "Feature", "properties": { "name": "놀부부대찌개 수서역점", "HubName": "백제고분로34길" }, "geometry": { "type": "Point", "coordinates": [ 127.101844450005999, 37.488024486741601 ] } },
{ "type": "Feature", "properties": { "name": "수서동1번집", "HubName": "백제고분로34길" }, "geometry": { "type": "Point", "coordinates": [ 127.103188748655, 37.488675829925597 ] } },
{ "type": "Feature", "properties": { "name": "이삭토스트 강남수서점", "HubName": "백제고분로34길" }, "geometry": { "type": "Point", "coordinates": [ 127.103108072457005, 37.487319163148896 ] } },
{ "type": "Feature", "properties": { "name": "반가안동국시", "HubName": "백제고분로34길" }, "geometry": { "type": "Point", "coordinates": [ 127.099180668208007, 37.486024893922803 ] } },
{ "type": "Feature", "properties": { "name": "드봉루아", "HubName": "백제고분로34길" }, "geometry": { "type": "Point", "coordinates": [ 127.103957177072004, 37.490217230357203 ] } },
{ "type": "Feature", "properties": { "name": "미태리 수서역점", "HubName": "백제고분로34길" }, "geometry": { "type": "Point", "coordinates": [ 127.101844450005999, 37.488024486741601 ] } },
{ "type": "Feature", "properties": { "name": "대흥정", "HubName": "백제고분로34길" }, "geometry": { "type": "Point", "coordinates": [ 127.099528776583, 37.485917381244498 ] } },
{ "type": "Feature", "properties": { "name": "일미원", "HubName": "백제고분로34길" }, "geometry": { "type": "Point", "coordinates": [ 127.099657605122005, 37.486035394785603 ] } },
{ "type": "Feature", "properties": { "name": "스미식당", "HubName": "백제고분로34길" }, "geometry": { "type": "Point", "coordinates": [ 127.101844450005999, 37.488024486741601 ] } },
{ "type": "Feature", "properties": { "name": "황금유황오리 부추덕", "HubName": "백제고분로34길" }, "geometry": { "type": "Point", "coordinates": [ 127.101844450005999, 37.488024486741601 ] } },
{ "type": "Feature", "properties": { "name": "효미역 수서점", "HubName": "백제고분로34길" }, "geometry": { "type": "Point", "coordinates": [ 127.098820400652002, 37.486001138893002 ] } },
{ "type": "Feature", "properties": { "name": "제주몬트락 수서직영점", "HubName": "백제고분로34길" }, "geometry": { "type": "Point", "coordinates": [ 127.103641316825005, 37.488631644819201 ] } },
{ "type": "Feature", "properties": { "name": "홍낙 수서점", "HubName": "일원로9길" }, "geometry": { "type": "Point", "coordinates": [ 127.097373152973006, 37.484977894424503 ] } },
{ "type": "Feature", "properties": { "name": "청국장과보리밥 수서점", "HubName": "백제고분로34길" }, "geometry": { "type": "Point", "coordinates": [ 127.099336273115, 37.486127387995801 ] } },
{ "type": "Feature", "properties": { "name": "서래향 수서점", "HubName": "백제고분로34길" }, "geometry": { "type": "Point", "coordinates": [ 127.102982637338002, 37.488443189428502 ] } },
{ "type": "Feature", "properties": { "name": "나미루라멘", "HubName": "백제고분로34길" }, "geometry": { "type": "Point", "coordinates": [ 127.101844450005999, 37.488024486741601 ] } },
{ "type": "Feature", "properties": { "name": "삼대국수회관", "HubName": "백제고분로34길" }, "geometry": { "type": "Point", "coordinates": [ 127.103108072457005, 37.487319163148896 ] } },
{ "type": "Feature", "properties": { "name": "온화담", "HubName": "백제고분로34길" }, "geometry": { "type": "Point", "coordinates": [ 127.099093005618002, 37.485741960888397 ] } },
{ "type": "Feature", "properties": { "name": "초원복집", "HubName": "백제고분로34길" }, "geometry": { "type": "Point", "coordinates": [ 127.103108072457005, 37.487319163148896 ] } },
{ "type": "Feature", "properties": { "name": "봉추찜닭 수서역점", "HubName": "백제고분로34길" }, "geometry": { "type": "Point", "coordinates": [ 127.101844450005999, 37.488024486741601 ] } },
{ "type": "Feature", "properties": { "name": "투썸플레이스 수서역점", "HubName": "백제고분로34길" }, "geometry": { "type": "Point", "coordinates": [ 127.103173559444002, 37.486757597965102 ] } },
{ "type": "Feature", "properties": { "name": "포메인 수서점", "HubName": "백제고분로34길" }, "geometry": { "type": "Point", "coordinates": [ 127.103229900293002, 37.488506584770199 ] } },
{ "type": "Feature", "properties": { "name": "써브웨이 수서역점", "HubName": "백제고분로34길" }, "geometry": { "type": "Point", "coordinates": [ 127.101844450005999, 37.488024486741601 ] } },
{ "type": "Feature", "properties": { "name": "세광양대창 수서점", "HubName": "백제고분로34길" }, "geometry": { "type": "Point", "coordinates": [ 127.102760230380994, 37.488364995428398 ] } },
{ "type": "Feature", "properties": { "name": "논골집 수서점", "HubName": "백제고분로34길" }, "geometry": { "type": "Point", "coordinates": [ 127.099195536962995, 37.486238870814603 ] } },
{ "type": "Feature", "properties": { "name": "순대실록 수서점", "HubName": "백제고분로34길" }, "geometry": { "type": "Point", "coordinates": [ 127.099354263039999, 37.486307214041403 ] } },
{ "type": "Feature", "properties": { "name": "리틀넥 청담", "HubName": "도산대로50길" }, "geometry": { "type": "Point", "coordinates": [ 127.037766715705004, 37.524213826180699 ] } },
{ "type": "Feature", "properties": { "name": "로로", "HubName": "도산대로50길" }, "geometry": { "type": "Point", "coordinates": [ 127.036402710515006, 37.5255219691729 ] } },
{ "type": "Feature", "properties": { "name": "까폼", "HubName": "도산대로50길" }, "geometry": { "type": "Point", "coordinates": [ 127.037988213226996, 37.524876262151501 ] } },
{ "type": "Feature", "properties": { "name": "신사890", "HubName": "강남대로140길" }, "geometry": { "type": "Point", "coordinates": [ 127.021560267907006, 37.517549573997997 ] } },
{ "type": "Feature", "properties": { "name": "TATITATI", "HubName": "도산대로38길" }, "geometry": { "type": "Point", "coordinates": [ 127.032419816463005, 37.523972054169697 ] } },
{ "type": "Feature", "properties": { "name": "비파티세리", "HubName": "논현로159길" }, "geometry": { "type": "Point", "coordinates": [ 127.023245835205998, 37.522003633328403 ] } },
{ "type": "Feature", "properties": { "name": "더페이머스버거 압구정점", "HubName": "도산대로50길" }, "geometry": { "type": "Point", "coordinates": [ 127.037106639382003, 37.526070910907102 ] } },
{ "type": "Feature", "properties": { "name": "웨이크앤베이크 청담", "HubName": "도산대로50길" }, "geometry": { "type": "Point", "coordinates": [ 127.034608735066001, 37.525789475433001 ] } },
{ "type": "Feature", "properties": { "name": "임프레션", "HubName": "도산대로50길" }, "geometry": { "type": "Point", "coordinates": [ 127.035474222087998, 37.5254251236695 ] } },
{ "type": "Feature", "properties": { "name": "르브런쉭 신사점", "HubName": "압구정로2길" }, "geometry": { "type": "Point", "coordinates": [ 127.021066656000997, 37.522070626226999 ] } },
{ "type": "Feature", "properties": { "name": "클랩피자 청담점", "HubName": "도산대로50길" }, "geometry": { "type": "Point", "coordinates": [ 127.036589355974996, 37.5240994991916 ] } },
{ "type": "Feature", "properties": { "name": "SADDLER HAUS", "HubName": "도산대로15길" }, "geometry": { "type": "Point", "coordinates": [ 127.024920652047001, 37.519383265374302 ] } },
{ "type": "Feature", "properties": { "name": "다운타우너 청담", "HubName": "도산대로50길" }, "geometry": { "type": "Point", "coordinates": [ 127.038573907268002, 37.524064899914997 ] } },
{ "type": "Feature", "properties": { "name": "오리지널팬케이크하우스 가로수길점", "HubName": "압구정로2길" }, "geometry": { "type": "Point", "coordinates": [ 127.021602663764, 37.521002300466499 ] } },
{ "type": "Feature", "properties": { "name": "치즈룸", "HubName": "도산대로23길" }, "geometry": { "type": "Point", "coordinates": [ 127.028865132152006, 37.525321596706299 ] } },
{ "type": "Feature", "properties": { "name": "소진담 신사점", "HubName": "논현로159길" }, "geometry": { "type": "Point", "coordinates": [ 127.024216016015998, 37.522475834113202 ] } },
{ "type": "Feature", "properties": { "name": "압구정제주집", "HubName": "도산대로38길" }, "geometry": { "type": "Point", "coordinates": [ 127.031109141030996, 37.521519967660602 ] } },
{ "type": "Feature", "properties": { "name": "골드피쉬 딤섬퀴진", "HubName": "도산대로50길" }, "geometry": { "type": "Point", "coordinates": [ 127.037106639382003, 37.526070910907102 ] } },
{ "type": "Feature", "properties": { "name": "오복수산 도산", "HubName": "도산대로50길" }, "geometry": { "type": "Point", "coordinates": [ 127.038573907268002, 37.524064899914997 ] } },
{ "type": "Feature", "properties": { "name": "쮸즈", "HubName": "도산대로15길" }, "geometry": { "type": "Point", "coordinates": [ 127.024605428724996, 37.519501903475401 ] } },
{ "type": "Feature", "properties": { "name": "뉴욕라츠오베이글스", "HubName": "도산대로50길" }, "geometry": { "type": "Point", "coordinates": [ 127.036617177466994, 37.526861602856101 ] } },
{ "type": "Feature", "properties": { "name": "무탄", "HubName": "도산대로23길" }, "geometry": { "type": "Point", "coordinates": [ 127.030310574564993, 37.527298934134897 ] } },
{ "type": "Feature", "properties": { "name": "화이트야드", "HubName": "도산대로50길" }, "geometry": { "type": "Point", "coordinates": [ 127.037864361800999, 37.526488194763999 ] } },
{ "type": "Feature", "properties": { "name": "골뱅이신사", "HubName": "도산대로15길" }, "geometry": { "type": "Point", "coordinates": [ 127.021839080546002, 37.5186503686569 ] } },
{ "type": "Feature", "properties": { "name": "어썸로즈", "HubName": "도산대로15길" }, "geometry": { "type": "Point", "coordinates": [ 127.022009877803995, 37.520925099435402 ] } },
{ "type": "Feature", "properties": { "name": "샤블리", "HubName": "도산대로15길" }, "geometry": { "type": "Point", "coordinates": [ 127.022201116435994, 37.518086092895302 ] } },
{ "type": "Feature", "properties": { "name": "카페 노티드 청담", "HubName": "도산대로50길" }, "geometry": { "type": "Point", "coordinates": [ 127.038241721128998, 37.524191688875803 ] } },
{ "type": "Feature", "properties": { "name": "삼창교자", "HubName": "압구정로2길" }, "geometry": { "type": "Point", "coordinates": [ 127.021750359945003, 37.518915099779001 ] } },
{ "type": "Feature", "properties": { "name": "더페이머스버거 신사점", "HubName": "강남대로140길" }, "geometry": { "type": "Point", "coordinates": [ 127.020850541799007, 37.517014685558898 ] } },
{ "type": "Feature", "properties": { "name": "콘피에르", "HubName": "도산대로50길" }, "geometry": { "type": "Point", "coordinates": [ 127.037548864957003, 37.523596979284903 ] } },
{ "type": "Feature", "properties": { "name": "심퍼티쿠시 가로수길점", "HubName": "강남대로140길" }, "geometry": { "type": "Point", "coordinates": [ 127.020566787144006, 37.517614893715503 ] } },
{ "type": "Feature", "properties": { "name": "호족반", "HubName": "도산대로50길" }, "geometry": { "type": "Point", "coordinates": [ 127.036746588867004, 37.5254584321276 ] } },
{ "type": "Feature", "properties": { "name": "유어네이키드치즈 신사점", "HubName": "논현로159길" }, "geometry": { "type": "Point", "coordinates": [ 127.022360787333994, 37.521329583813703 ] } },
{ "type": "Feature", "properties": { "name": "핫쵸", "HubName": "도산대로15길" }, "geometry": { "type": "Point", "coordinates": [ 127.023527965769006, 37.520930032599402 ] } },
{ "type": "Feature", "properties": { "name": "구전동화", "HubName": "도산대로50길" }, "geometry": { "type": "Point", "coordinates": [ 127.036220299134001, 37.527058864466603 ] } },
{ "type": "Feature", "properties": { "name": "미미면가", "HubName": "압구정로2길" }, "geometry": { "type": "Point", "coordinates": [ 127.021101274455006, 37.5200722857427 ] } },
{ "type": "Feature", "properties": { "name": "아우어베이커리 가로수길점", "HubName": "압구정로2길" }, "geometry": { "type": "Point", "coordinates": [ 127.021476969001995, 37.520943037398602 ] } },
{ "type": "Feature", "properties": { "name": "맥주덕후 피자덕후 압구정점", "HubName": "도산대로50길" }, "geometry": { "type": "Point", "coordinates": [ 127.037944716693005, 37.5261064144049 ] } },
{ "type": "Feature", "properties": { "name": "우와", "HubName": "압구정로2길" }, "geometry": { "type": "Point", "coordinates": [ 127.020269596092007, 37.519158994444801 ] } },
{ "type": "Feature", "properties": { "name": "마일스톤 커피", "HubName": "논현로159길" }, "geometry": { "type": "Point", "coordinates": [ 127.024334591637995, 37.521847450448 ] } },
{ "type": "Feature", "properties": { "name": "쿠라우니", "HubName": "도산대로15길" }, "geometry": { "type": "Point", "coordinates": [ 127.022090541398001, 37.519034329469299 ] } },
{ "type": "Feature", "properties": { "name": "뉴만두집", "HubName": "선릉로146길" }, "geometry": { "type": "Point", "coordinates": [ 127.038877956424997, 37.527924513001501 ] } },
{ "type": "Feature", "properties": { "name": "리마크스", "HubName": "도산대로50길" }, "geometry": { "type": "Point", "coordinates": [ 127.033920491415998, 37.526356225225598 ] } },
{ "type": "Feature", "properties": { "name": "호호식당 도산공원", "HubName": "도산대로50길" }, "geometry": { "type": "Point", "coordinates": [ 127.036642185817996, 37.5250247220972 ] } },
{ "type": "Feature", "properties": { "name": "아스트랄 wine bistro", "HubName": "도산대로50길" }, "geometry": { "type": "Point", "coordinates": [ 127.036184100775998, 37.525894780939701 ] } },
{ "type": "Feature", "properties": { "name": "오스테리아 꼬또 압구정점", "HubName": "도산대로38길" }, "geometry": { "type": "Point", "coordinates": [ 127.032236687812002, 37.525074841057801 ] } },
{ "type": "Feature", "properties": { "name": "청담돈", "HubName": "도산대로50길" }, "geometry": { "type": "Point", "coordinates": [ 127.037096490731997, 37.523624332512803 ] } },
{ "type": "Feature", "properties": { "name": "갓잇 도산공원점", "HubName": "도산대로50길" }, "geometry": { "type": "Point", "coordinates": [ 127.035474222087998, 37.5254251236695 ] } },
{ "type": "Feature", "properties": { "name": "꽁티드툴레아", "HubName": "도산대로50길" }, "geometry": { "type": "Point", "coordinates": [ 127.036889294893996, 37.5255631741936 ] } },
{ "type": "Feature", "properties": { "name": "C27 가로수길점", "HubName": "도산대로15길" }, "geometry": { "type": "Point", "coordinates": [ 127.023245102185996, 37.520734751174899 ] } },
{ "type": "Feature", "properties": { "name": "에이비카페 강남1호점", "HubName": "강남대로118길" }, "geometry": { "type": "Point", "coordinates": [ 127.027938289743005, 37.502904841571898 ] } },
{ "type": "Feature", "properties": { "name": "스폰티니 강남점", "HubName": "강남대로118길" }, "geometry": { "type": "Point", "coordinates": [ 127.026055773707, 37.502062831447397 ] } },
{ "type": "Feature", "properties": { "name": "후추포인트", "HubName": "강남대로118길" }, "geometry": { "type": "Point", "coordinates": [ 127.027255717013006, 37.503077183210202 ] } },
{ "type": "Feature", "properties": { "name": "올바른스시 강남역점", "HubName": "강남대로118길" }, "geometry": { "type": "Point", "coordinates": [ 127.026931213723003, 37.502347623232602 ] } },
{ "type": "Feature", "properties": { "name": "일편등심 강남점", "HubName": "강남대로118길" }, "geometry": { "type": "Point", "coordinates": [ 127.027810535308006, 37.499663412885297 ] } },
{ "type": "Feature", "properties": { "name": "대낚식당", "HubName": "논현로63길" }, "geometry": { "type": "Point", "coordinates": [ 127.034468340318995, 37.494546463664499 ] } },
{ "type": "Feature", "properties": { "name": "OPH 센터필드점", "HubName": "언주로81길" }, "geometry": { "type": "Point", "coordinates": [ 127.041356540267998, 37.502881354177397 ] } },
{ "type": "Feature", "properties": { "name": "커피스니퍼 센터필드점", "HubName": "언주로81길" }, "geometry": { "type": "Point", "coordinates": [ 127.041356540267998, 37.502881354177397 ] } },
{ "type": "Feature", "properties": { "name": "아올", "HubName": "강남대로118길" }, "geometry": { "type": "Point", "coordinates": [ 127.029602310921007, 37.499642524643299 ] } },
{ "type": "Feature", "properties": { "name": "미도인 강남", "HubName": "강남대로118길" }, "geometry": { "type": "Point", "coordinates": [ 127.027182080667004, 37.502108258644299 ] } },
{ "type": "Feature", "properties": { "name": "나이티지", "HubName": "논현로63길" }, "geometry": { "type": "Point", "coordinates": [ 127.031607684010993, 37.495533595856301 ] } },
{ "type": "Feature", "properties": { "name": "서울북카페 욕망의북카페", "HubName": "강남대로118길" }, "geometry": { "type": "Point", "coordinates": [ 127.028260170568004, 37.503845595034697 ] } },
{ "type": "Feature", "properties": { "name": "플러버 강남직영점", "HubName": "강남대로118길" }, "geometry": { "type": "Point", "coordinates": [ 127.029906559720004, 37.499457201144502 ] } },
{ "type": "Feature", "properties": { "name": "호보식당", "HubName": "논현로63길" }, "geometry": { "type": "Point", "coordinates": [ 127.034664677707994, 37.498032400946897 ] } },
{ "type": "Feature", "properties": { "name": "마초쉐프 강남본점", "HubName": "강남대로118길" }, "geometry": { "type": "Point", "coordinates": [ 127.027841927693999, 37.503497906214299 ] } },
{ "type": "Feature", "properties": { "name": "트리오드", "HubName": "강남대로118길" }, "geometry": { "type": "Point", "coordinates": [ 127.029602310921007, 37.499642524643299 ] } },
{ "type": "Feature", "properties": { "name": "스테이터 강남역점", "HubName": "강남대로118길" }, "geometry": { "type": "Point", "coordinates": [ 127.026861660782998, 37.502977171746302 ] } },
{ "type": "Feature", "properties": { "name": "미엔아이 천등", "HubName": "강남대로118길" }, "geometry": { "type": "Point", "coordinates": [ 127.026657450781997, 37.502765842077302 ] } },
{ "type": "Feature", "properties": { "name": "매우매오 강남역본점", "HubName": "강남대로118길" }, "geometry": { "type": "Point", "coordinates": [ 127.026931213723003, 37.502347623232602 ] } },
{ "type": "Feature", "properties": { "name": "고래불", "HubName": "논현로63길" }, "geometry": { "type": "Point", "coordinates": [ 127.033957316935997, 37.496275823880097 ] } },
{ "type": "Feature", "properties": { "name": "밥밥디라라 역삼본점", "HubName": "논현로63길" }, "geometry": { "type": "Point", "coordinates": [ 127.034381266758004, 37.492571031039901 ] } },
{ "type": "Feature", "properties": { "name": "프리모바치오바치 강남점", "HubName": "강남대로118길" }, "geometry": { "type": "Point", "coordinates": [ 127.027157607819007, 37.499798805812802 ] } },
{ "type": "Feature", "properties": { "name": "도치피자 강남점", "HubName": "강남대로118길" }, "geometry": { "type": "Point", "coordinates": [ 127.028875568681997, 37.501028271613499 ] } },
{ "type": "Feature", "properties": { "name": "마녀주방 강남점", "HubName": "강남대로118길" }, "geometry": { "type": "Point", "coordinates": [ 127.028096922783007, 37.499483954790698 ] } },
{ "type": "Feature", "properties": { "name": "바비레드 강남본점", "HubName": "강남대로118길" }, "geometry": { "type": "Point", "coordinates": [ 127.027942392591996, 37.502685806123097 ] } },
{ "type": "Feature", "properties": { "name": "감성타코 강남역점", "HubName": "서초대로64길" }, "geometry": { "type": "Point", "coordinates": [ 127.027622767131007, 37.498940129158299 ] } },
{ "type": "Feature", "properties": { "name": "신동궁감자탕 역삼본점", "HubName": "논현로63길" }, "geometry": { "type": "Point", "coordinates": [ 127.032913354098994, 37.497887119025997 ] } },
{ "type": "Feature", "properties": { "name": "라그릴리아 SPC스퀘어점", "HubName": "논현로63길" }, "geometry": { "type": "Point", "coordinates": [ 127.029802084663999, 37.494382758573501 ] } },
{ "type": "Feature", "properties": { "name": "땀땀", "HubName": "강남대로118길" }, "geometry": { "type": "Point", "coordinates": [ 127.027973437756003, 37.500414813503603 ] } },
{ "type": "Feature", "properties": { "name": "비어룸", "HubName": "강남대로118길" }, "geometry": { "type": "Point", "coordinates": [ 127.028472207882004, 37.500823660967498 ] } },
{ "type": "Feature", "properties": { "name": "구구당", "HubName": "강남대로118길" }, "geometry": { "type": "Point", "coordinates": [ 127.027878152154997, 37.503285440555402 ] } },
{ "type": "Feature", "properties": { "name": "돝고기506", "HubName": "언주로81길" }, "geometry": { "type": "Point", "coordinates": [ 127.036206152949006, 37.498248270198197 ] } },
{ "type": "Feature", "properties": { "name": "녘", "HubName": "강남대로118길" }, "geometry": { "type": "Point", "coordinates": [ 127.026657450781997, 37.502765842077302 ] } },
{ "type": "Feature", "properties": { "name": "알베르", "HubName": "강남대로118길" }, "geometry": { "type": "Point", "coordinates": [ 127.028103011461994, 37.503056531849602 ] } },
{ "type": "Feature", "properties": { "name": "트라가", "HubName": "논현로106길" }, "geometry": { "type": "Point", "coordinates": [ 127.034849964241999, 37.503494514897298 ] } },
{ "type": "Feature", "properties": { "name": "썸띵어바웃커피", "HubName": "강남대로118길" }, "geometry": { "type": "Point", "coordinates": [ 127.027814764233, 37.5028324298668 ] } },
{ "type": "Feature", "properties": { "name": "빌즈 강남", "HubName": "언주로81길" }, "geometry": { "type": "Point", "coordinates": [ 127.034954751198001, 37.499744047151196 ] } },
{ "type": "Feature", "properties": { "name": "코르바니", "HubName": "언주로81길" }, "geometry": { "type": "Point", "coordinates": [ 127.042906635503996, 37.504513783685503 ] } },
{ "type": "Feature", "properties": { "name": "랑데자뷰 강남점", "HubName": "강남대로118길" }, "geometry": { "type": "Point", "coordinates": [ 127.027942392591996, 37.502685806123097 ] } },
{ "type": "Feature", "properties": { "name": "정돈 강남점", "HubName": "강남대로118길" }, "geometry": { "type": "Point", "coordinates": [ 127.026947168701, 37.503630921930998 ] } },
{ "type": "Feature", "properties": { "name": "커리146 강남점", "HubName": "봉은사로68길" }, "geometry": { "type": "Point", "coordinates": [ 127.047152781712001, 37.505858717428197 ] } },
{ "type": "Feature", "properties": { "name": "어글리스토브 신논현강남역점", "HubName": "강남대로118길" }, "geometry": { "type": "Point", "coordinates": [ 127.028229281308001, 37.500803987237198 ] } },
{ "type": "Feature", "properties": { "name": "을지다락 강남", "HubName": "강남대로118길" }, "geometry": { "type": "Point", "coordinates": [ 127.028783324841996, 37.499950240420603 ] } },
{ "type": "Feature", "properties": { "name": "보슬보슬", "HubName": "논현로63길" }, "geometry": { "type": "Point", "coordinates": [ 127.031593889465995, 37.497416342998299 ] } },
{ "type": "Feature", "properties": { "name": "무월식탁", "HubName": "강남대로118길" }, "geometry": { "type": "Point", "coordinates": [ 127.027312099542002, 37.502625315847702 ] } },
{ "type": "Feature", "properties": { "name": "어거스트 힐 강남점", "HubName": "강남대로118길" }, "geometry": { "type": "Point", "coordinates": [ 127.027616261153995, 37.503383261176999 ] } },
{ "type": "Feature", "properties": { "name": "알라보 강남점", "HubName": "논현로106길" }, "geometry": { "type": "Point", "coordinates": [ 127.032367803374001, 37.499932644060301 ] } },
{ "type": "Feature", "properties": { "name": "닭발여행x윤이불닭발", "HubName": "강남대로118길" }, "geometry": { "type": "Point", "coordinates": [ 127.028290548097004, 37.499829354337898 ] } },
{ "type": "Feature", "properties": { "name": "갓덴스시 강남점", "HubName": "강남대로118길" }, "geometry": { "type": "Point", "coordinates": [ 127.028991540150997, 37.498825373378303 ] } },
{ "type": "Feature", "properties": { "name": "쉐이크쉑 강남점", "HubName": "강남대로118길" }, "geometry": { "type": "Point", "coordinates": [ 127.025693355412002, 37.502851020538202 ] } },
{ "type": "Feature", "properties": { "name": "고센인코퍼레이티드 청담점", "HubName": "선릉로146길" }, "geometry": { "type": "Point", "coordinates": [ 127.041432441137999, 37.525210457140602 ] } },
{ "type": "Feature", "properties": { "name": "미미미 가든", "HubName": "선릉로146길" }, "geometry": { "type": "Point", "coordinates": [ 127.041117630865003, 37.523811310561001 ] } },
{ "type": "Feature", "properties": { "name": "썬더버드 청담점", "HubName": "선릉로146길" }, "geometry": { "type": "Point", "coordinates": [ 127.041701097341004, 37.526187139001102 ] } },
{ "type": "Feature", "properties": { "name": "mmn", "HubName": "선릉로146길" }, "geometry": { "type": "Point", "coordinates": [ 127.043951549978004, 37.520937533160897 ] } },
{ "type": "Feature", "properties": { "name": "스시코우지", "HubName": "도산대로50길" }, "geometry": { "type": "Point", "coordinates": [ 127.039831380308001, 37.5229355264253 ] } },
{ "type": "Feature", "properties": { "name": "텐지몽", "HubName": "도산대로89길" }, "geometry": { "type": "Point", "coordinates": [ 127.054313613882002, 37.522408974976798 ] } },
{ "type": "Feature", "properties": { "name": "뜨락", "HubName": "도산대로89길" }, "geometry": { "type": "Point", "coordinates": [ 127.055551200750003, 37.524414841696 ] } },
{ "type": "Feature", "properties": { "name": "호무랑", "HubName": "선릉로146길" }, "geometry": { "type": "Point", "coordinates": [ 127.044119009561996, 37.5233111622682 ] } },
{ "type": "Feature", "properties": { "name": "BISTROT de YOUNTVILLE", "HubName": "선릉로146길" }, "geometry": { "type": "Point", "coordinates": [ 127.041233246228998, 37.526074227507003 ] } },
{ "type": "Feature", "properties": { "name": "에비던스", "HubName": "선릉로146길" }, "geometry": { "type": "Point", "coordinates": [ 127.041631137978996, 37.524069357961402 ] } },
{ "type": "Feature", "properties": { "name": "피플더테라스", "HubName": "도산대로81길" }, "geometry": { "type": "Point", "coordinates": [ 127.047571006187994, 37.525261032976303 ] } },
{ "type": "Feature", "properties": { "name": "MUOKI", "HubName": "선릉로132길" }, "geometry": { "type": "Point", "coordinates": [ 127.042235431991998, 37.519008391060297 ] } },
{ "type": "Feature", "properties": { "name": "스시효 청담점", "HubName": "선릉로146길" }, "geometry": { "type": "Point", "coordinates": [ 127.041845848494006, 37.522039413466302 ] } },
{ "type": "Feature", "properties": { "name": "윌로뜨", "HubName": "선릉로146길" }, "geometry": { "type": "Point", "coordinates": [ 127.043405669305997, 37.522767941853097 ] } },
{ "type": "Feature", "properties": { "name": "퀸즈파크 청담점", "HubName": "선릉로146길" }, "geometry": { "type": "Point", "coordinates": [ 127.041610254692998, 37.525983544572597 ] } },
{ "type": "Feature", "properties": { "name": "카페 디올", "HubName": "도산대로81길" }, "geometry": { "type": "Point", "coordinates": [ 127.046501538450002, 37.524781675216303 ] } },
{ "type": "Feature", "properties": { "name": "톡톡", "HubName": "도산대로89길" }, "geometry": { "type": "Point", "coordinates": [ 127.054313613882002, 37.522408974976798 ] } },
{ "type": "Feature", "properties": { "name": "삼성원조양곱창", "HubName": "봉은사로109길" }, "geometry": { "type": "Point", "coordinates": [ 127.057637393785996, 37.5209221868854 ] } },
{ "type": "Feature", "properties": { "name": "팔식당", "HubName": "삼성로147길" }, "geometry": { "type": "Point", "coordinates": [ 127.049353121755999, 37.523737337547203 ] } },
{ "type": "Feature", "properties": { "name": "청담골", "HubName": "선릉로146길" }, "geometry": { "type": "Point", "coordinates": [ 127.043405669305997, 37.522767941853097 ] } },
{ "type": "Feature", "properties": { "name": "정식당", "HubName": "선릉로146길" }, "geometry": { "type": "Point", "coordinates": [ 127.041081085944995, 37.525658287857901 ] } },
{ "type": "Feature", "properties": { "name": "익스퀴진", "HubName": "학동로77길" }, "geometry": { "type": "Point", "coordinates": [ 127.049670008196003, 37.521040413781897 ] } },
{ "type": "Feature", "properties": { "name": "더그릴630", "HubName": "선릉로146길" }, "geometry": { "type": "Point", "coordinates": [ 127.043001653112, 37.523074160209099 ] } },
{ "type": "Feature", "properties": { "name": "페어링룸", "HubName": "도산대로81길" }, "geometry": { "type": "Point", "coordinates": [ 127.047836479835993, 37.5253800382362 ] } },
{ "type": "Feature", "properties": { "name": "드레스덴 그린", "HubName": "선릉로146길" }, "geometry": { "type": "Point", "coordinates": [ 127.042083071774002, 37.523054669026301 ] } },
{ "type": "Feature", "properties": { "name": "스피티코 청담", "HubName": "삼성로147길" }, "geometry": { "type": "Point", "coordinates": [ 127.046151776071994, 37.523171631050801 ] } },
{ "type": "Feature", "properties": { "name": "덕후선생", "HubName": "선릉로146길" }, "geometry": { "type": "Point", "coordinates": [ 127.040173694699007, 37.5252571134261 ] } },
{ "type": "Feature", "properties": { "name": "울프강 스테이크하우스", "HubName": "선릉로146길" }, "geometry": { "type": "Point", "coordinates": [ 127.041463043475005, 37.5244973932097 ] } },
{ "type": "Feature", "properties": { "name": "스케줄청담", "HubName": "선릉로146길" }, "geometry": { "type": "Point", "coordinates": [ 127.042678785801996, 37.524644994825003 ] } },
{ "type": "Feature", "properties": { "name": "쿠촐로 테라짜", "HubName": "선릉로146길" }, "geometry": { "type": "Point", "coordinates": [ 127.042300440703997, 37.524558094115697 ] } },
{ "type": "Feature", "properties": { "name": "볼트스테이크하우스", "HubName": "선릉로146길" }, "geometry": { "type": "Point", "coordinates": [ 127.044974006296002, 37.525006526229198 ] } },
{ "type": "Feature", "properties": { "name": "보트르메종", "HubName": "선릉로146길" }, "geometry": { "type": "Point", "coordinates": [ 127.042083071774002, 37.523054669026301 ] } },
{ "type": "Feature", "properties": { "name": "권숙수", "HubName": "선릉로146길" }, "geometry": { "type": "Point", "coordinates": [ 127.043577647831995, 37.524375627301801 ] } },
{ "type": "Feature", "properties": { "name": "일판", "HubName": "선릉로146길" }, "geometry": { "type": "Point", "coordinates": [ 127.042083071774002, 37.523054669026301 ] } },
{ "type": "Feature", "properties": { "name": "케이하우스", "HubName": "삼성로147길" }, "geometry": { "type": "Point", "coordinates": [ 127.048915541300005, 37.5235467773742 ] } },
{ "type": "Feature", "properties": { "name": "레스쁘아 뒤 이부", "HubName": "선릉로146길" }, "geometry": { "type": "Point", "coordinates": [ 127.042300440703997, 37.524558094115697 ] } },
{ "type": "Feature", "properties": { "name": "리사르커피 청담점", "HubName": "도산대로81길" }, "geometry": { "type": "Point", "coordinates": [ 127.048430033038997, 37.527085212979102 ] } },
{ "type": "Feature", "properties": { "name": "몽중헌 청담점", "HubName": "선릉로146길" }, "geometry": { "type": "Point", "coordinates": [ 127.044788076146006, 37.5243352600843 ] } },
{ "type": "Feature", "properties": { "name": "오아시스", "HubName": "선릉로146길" }, "geometry": { "type": "Point", "coordinates": [ 127.040603772322996, 37.524776912357403 ] } },
{ "type": "Feature", "properties": { "name": "메종 드 라 카테고리", "HubName": "선릉로146길" }, "geometry": { "type": "Point", "coordinates": [ 127.040214020633996, 37.525565602849397 ] } },
{ "type": "Feature", "properties": { "name": "우월", "HubName": "선릉로146길" }, "geometry": { "type": "Point", "coordinates": [ 127.044868548623, 37.5228902919226 ] } },
{ "type": "Feature", "properties": { "name": "테라스룸", "HubName": "선릉로146길" }, "geometry": { "type": "Point", "coordinates": [ 127.042678785801996, 37.524644994825003 ] } },
{ "type": "Feature", "properties": { "name": "에빠뉘", "HubName": "선릉로146길" }, "geometry": { "type": "Point", "coordinates": [ 127.042543826804007, 37.521858152667299 ] } },
{ "type": "Feature", "properties": { "name": "영천영화 청담점", "HubName": "도산대로89길" }, "geometry": { "type": "Point", "coordinates": [ 127.049578728065995, 37.523959970848999 ] } },
{ "type": "Feature", "properties": { "name": "BOME CHEONGDAM", "HubName": "선릉로146길" }, "geometry": { "type": "Point", "coordinates": [ 127.042677653468004, 37.524245941305601 ] } },
{ "type": "Feature", "properties": { "name": "펄쉘", "HubName": "선릉로146길" }, "geometry": { "type": "Point", "coordinates": [ 127.040906132238007, 37.526589263923199 ] } },
{ "type": "Feature", "properties": { "name": "옳음", "HubName": "선릉로146길" }, "geometry": { "type": "Point", "coordinates": [ 127.042678785801996, 37.524644994825003 ] } },
{ "type": "Feature", "properties": { "name": "밍글스", "HubName": "선릉로146길" }, "geometry": { "type": "Point", "coordinates": [ 127.044160043187006, 37.525370297666598 ] } },
{ "type": "Feature", "properties": { "name": "쵸이닷", "HubName": "삼성로147길" }, "geometry": { "type": "Point", "coordinates": [ 127.046557649367998, 37.524417467986297 ] } },
{ "type": "Feature", "properties": { "name": "마코토 청담점", "HubName": "선릉로146길" }, "geometry": { "type": "Point", "coordinates": [ 127.043577647831995, 37.524375627301801 ] } },
{ "type": "Feature", "properties": { "name": "배스킨라빈스 강일동점", "HubName": "동남로82길" }, "geometry": { "type": "Point", "coordinates": [ 127.174603355855993, 37.564962333507601 ] } },
{ "type": "Feature", "properties": { "name": "교촌치킨 강일점", "HubName": "동남로82길" }, "geometry": { "type": "Point", "coordinates": [ 127.173707785085995, 37.564413056442099 ] } },
{ "type": "Feature", "properties": { "name": "싸움의고수 강일점", "HubName": "동남로82길" }, "geometry": { "type": "Point", "coordinates": [ 127.174117962327998, 37.565380661584101 ] } },
{ "type": "Feature", "properties": { "name": "처갓집양념치킨 강일점", "HubName": "동남로82길" }, "geometry": { "type": "Point", "coordinates": [ 127.172964028558994, 37.565634275989602 ] } },
{ "type": "Feature", "properties": { "name": "박카츠", "HubName": "동남로82길" }, "geometry": { "type": "Point", "coordinates": [ 127.173539404834997, 37.565894810287801 ] } },
{ "type": "Feature", "properties": { "name": "장어집", "HubName": "동남로82길" }, "geometry": { "type": "Point", "coordinates": [ 127.170727455260007, 37.576955640211303 ] } },
{ "type": "Feature", "properties": { "name": "나무수", "HubName": "동남로82길" }, "geometry": { "type": "Point", "coordinates": [ 127.173436109446996, 37.5653777008392 ] } },
{ "type": "Feature", "properties": { "name": "철곱순이곱창트럭 강일점", "HubName": "동남로82길" }, "geometry": { "type": "Point", "coordinates": [ 127.177260246293002, 37.562733006150502 ] } },
{ "type": "Feature", "properties": { "name": "멘야칸지루", "HubName": "동남로82길" }, "geometry": { "type": "Point", "coordinates": [ 127.173815745840002, 37.565622573577301 ] } },
{ "type": "Feature", "properties": { "name": "진심참치초밥", "HubName": "동남로82길" }, "geometry": { "type": "Point", "coordinates": [ 127.173815745840002, 37.565622573577301 ] } },
{ "type": "Feature", "properties": { "name": "아부찌부대찌개 강일점", "HubName": "동남로82길" }, "geometry": { "type": "Point", "coordinates": [ 127.174117962327998, 37.565380661584101 ] } },
{ "type": "Feature", "properties": { "name": "자메뷰 에스프레소바", "HubName": "동남로82길" }, "geometry": { "type": "Point", "coordinates": [ 127.175179201457993, 37.572286205673301 ] } },
{ "type": "Feature", "properties": { "name": "파리바게뜨 강일리버파크점", "HubName": "동남로82길" }, "geometry": { "type": "Point", "coordinates": [ 127.173815745840002, 37.565622573577301 ] } },
{ "type": "Feature", "properties": { "name": "버드나무집", "HubName": "동남로82길" }, "geometry": { "type": "Point", "coordinates": [ 127.172024343708003, 37.566867939702398 ] } },
{ "type": "Feature", "properties": { "name": "명태어장 강일점", "HubName": "동남로82길" }, "geometry": { "type": "Point", "coordinates": [ 127.173190729552999, 37.565725214441201 ] } },
{ "type": "Feature", "properties": { "name": "사이공본가 강일점", "HubName": "동남로82길" }, "geometry": { "type": "Point", "coordinates": [ 127.173815745840002, 37.565622573577301 ] } },
{ "type": "Feature", "properties": { "name": "메가엠지씨커피 강일2지구점", "HubName": "동남로82길" }, "geometry": { "type": "Point", "coordinates": [ 127.173931648055003, 37.571949546861603 ] } },
{ "type": "Feature", "properties": { "name": "화로상회 강일점", "HubName": "동남로82길" }, "geometry": { "type": "Point", "coordinates": [ 127.174852988118005, 37.572200193864703 ] } },
{ "type": "Feature", "properties": { "name": "믿음소망사랑", "HubName": "상일로5길" }, "geometry": { "type": "Point", "coordinates": [ 127.179997616633997, 37.559208494369699 ] } },
{ "type": "Feature", "properties": { "name": "동대문엽기떡볶이 강일동점", "HubName": "동남로82길" }, "geometry": { "type": "Point", "coordinates": [ 127.174071506529003, 37.564630111066499 ] } },
{ "type": "Feature", "properties": { "name": "쭈신할매의전설", "HubName": "동남로82길" }, "geometry": { "type": "Point", "coordinates": [ 127.174071506529003, 37.564630111066499 ] } },
{ "type": "Feature", "properties": { "name": "강빛참숯불구이", "HubName": "동남로82길" }, "geometry": { "type": "Point", "coordinates": [ 127.173931648055003, 37.571949546861603 ] } },
{ "type": "Feature", "properties": { "name": "신참떡볶이 강일동점", "HubName": "동남로82길" }, "geometry": { "type": "Point", "coordinates": [ 127.174353860744006, 37.565241019608102 ] } },
{ "type": "Feature", "properties": { "name": "돈카츠마켙 강일미사점", "HubName": "동남로82길" }, "geometry": { "type": "Point", "coordinates": [ 127.174497989375993, 37.572099717700802 ] } },
{ "type": "Feature", "properties": { "name": "BHC치킨 강일뉴타운점", "HubName": "동남로82길" }, "geometry": { "type": "Point", "coordinates": [ 127.173028834687997, 37.565073942297303 ] } },
{ "type": "Feature", "properties": { "name": "맘스터치 강동강일점", "HubName": "동남로82길" }, "geometry": { "type": "Point", "coordinates": [ 127.173815745840002, 37.565622573577301 ] } },
{ "type": "Feature", "properties": { "name": "수라면가", "HubName": "동남로82길" }, "geometry": { "type": "Point", "coordinates": [ 127.173066682612998, 37.565337247685903 ] } },
{ "type": "Feature", "properties": { "name": "벌떡 하남점", "HubName": "상일로5길" }, "geometry": { "type": "Point", "coordinates": [ 127.177832623849, 37.558354026903302 ] } },
{ "type": "Feature", "properties": { "name": "쌀통닭 강일점", "HubName": "동남로82길" }, "geometry": { "type": "Point", "coordinates": [ 127.174071506529003, 37.564630111066499 ] } },
{ "type": "Feature", "properties": { "name": "등나무집", "HubName": "동남로82길" }, "geometry": { "type": "Point", "coordinates": [ 127.172024343708003, 37.566867939702398 ] } },
{ "type": "Feature", "properties": { "name": "정금족발", "HubName": "동남로82길" }, "geometry": { "type": "Point", "coordinates": [ 127.174804893718004, 37.571722287754604 ] } },
{ "type": "Feature", "properties": { "name": "장어집", "HubName": "동남로82길" }, "geometry": { "type": "Point", "coordinates": [ 127.168797892770002, 37.577019051909403 ] } },
{ "type": "Feature", "properties": { "name": "7번가피자 강일점", "HubName": "상일로5길" }, "geometry": { "type": "Point", "coordinates": [ 127.172923689193993, 37.556849356762797 ] } },
{ "type": "Feature", "properties": { "name": "레전드치킨", "HubName": "동남로82길" }, "geometry": { "type": "Point", "coordinates": [ 127.173328226780995, 37.571770686035102 ] } },
{ "type": "Feature", "properties": { "name": "파리바게뜨 고덕강일성산점", "HubName": "동남로82길" }, "geometry": { "type": "Point", "coordinates": [ 127.173328226780995, 37.571770686035102 ] } },
{ "type": "Feature", "properties": { "name": "본도시락 상일점", "HubName": "상일로5길" }, "geometry": { "type": "Point", "coordinates": [ 127.172923689193993, 37.556849356762797 ] } },
{ "type": "Feature", "properties": { "name": "오로라베이커리", "HubName": "동남로82길" }, "geometry": { "type": "Point", "coordinates": [ 127.173539404834997, 37.565894810287801 ] } },
{ "type": "Feature", "properties": { "name": "느티나무집", "HubName": "동남로82길" }, "geometry": { "type": "Point", "coordinates": [ 127.172024343708003, 37.566867939702398 ] } },
{ "type": "Feature", "properties": { "name": "롯데리아 강일점", "HubName": "동남로82길" }, "geometry": { "type": "Point", "coordinates": [ 127.173190729552999, 37.565725214441201 ] } },
{ "type": "Feature", "properties": { "name": "네네치킨 강일점", "HubName": "동남로82길" }, "geometry": { "type": "Point", "coordinates": [ 127.177260246293002, 37.562733006150502 ] } },
{ "type": "Feature", "properties": { "name": "이레정", "HubName": "동남로82길" }, "geometry": { "type": "Point", "coordinates": [ 127.173539404834997, 37.565894810287801 ] } },
{ "type": "Feature", "properties": { "name": "치킨마루 강일점", "HubName": "동남로82길" }, "geometry": { "type": "Point", "coordinates": [ 127.173190729552999, 37.565725214441201 ] } },
{ "type": "Feature", "properties": { "name": "본죽 강일지구점", "HubName": "동남로82길" }, "geometry": { "type": "Point", "coordinates": [ 127.173539404834997, 37.565894810287801 ] } },
{ "type": "Feature", "properties": { "name": "화이트글래스", "HubName": "동남로82길" }, "geometry": { "type": "Point", "coordinates": [ 127.172964028558994, 37.565634275989602 ] } },
{ "type": "Feature", "properties": { "name": "명랑핫도그 강일점", "HubName": "동남로82길" }, "geometry": { "type": "Point", "coordinates": [ 127.174353860744006, 37.565241019608102 ] } },
{ "type": "Feature", "properties": { "name": "지코바 강일1호점", "HubName": "동남로82길" }, "geometry": { "type": "Point", "coordinates": [ 127.171346232914999, 37.561635494896599 ] } },
{ "type": "Feature", "properties": { "name": "차오차오", "HubName": "동남로82길" }, "geometry": { "type": "Point", "coordinates": [ 127.174314853490003, 37.564773550849502 ] } },
{ "type": "Feature", "properties": { "name": "신의주찹쌀순대 강일동점", "HubName": "동남로82길" },